id,SA2_name_usual_residence_address,SA2_name_educational_address,COMMUTE_TYPE,COUNT,TYPE,departure_SA22018_V1_NAME,departure_LATITUDE,departure_LONGITUDE,destination_SA22018_V1_NAME,destination_LATITUDE,destination_LONGITUDE,HAVERSINE_DISTANCE,DEPARTURE_NAME_2,DESTINATION_NAME_2,DEPARTURE_NAME_1,DESTINATION_NAME_1,cluster_count
E1165,Freemans Bay,Auckland-University,BICYCLE,6,EDUCATION,Freemans Bay,-36.85220128,174.7504171,Auckland-University,-36.85143057,174.76906469,1.661418189924384,Waitakere,Waitakere,Auckland,Auckland,145
E9068,Fairfield (Hamilton City),Hamilton East Village,BICYCLE,9,EDUCATION,Fairfield (Hamilton City),-37.76889278,175.284084,Hamilton East Village,-37.79028168,175.29324653,2.510960166485501,Hamilton,Hamilton,Waikato,Waikato,77
E11630,Matapihi,Matapihi,BICYCLE,6,EDUCATION,Matapihi,-37.69819147,176.19717384,Matapihi,-37.69819147,176.19717384,0.0,Western Bay of Plenty,Western Bay of Plenty,Bay of Plenty,Bay of Plenty,81
E12575,Tareha Reserve,Tareha Reserve,BICYCLE,21,EDUCATION,Tareha Reserve,-39.54400792,176.85143036,Tareha Reserve,-39.54400792,176.85143036,0.0,Hastings,Hastings,Hawke's Bay,Hawke's Bay,65
E17652,Maitlands,Grampians,BICYCLE,9,EDUCATION,Maitlands,-41.30875019,173.24301865,Grampians,-41.29660057,173.27351504,2.883524713793842,Nelson,Nelson,Nelson,Nelson,64
E18205,Holmwood,Mona Vale,BICYCLE,9,EDUCATION,Holmwood,-43.519344,172.6084094,Mona Vale,-43.52638334,172.60669389,0.7948659010793335,Christchurch,Christchurch,Canterbury,Canterbury,352
