id,SA2_name_usual_residence_address,SA2_name_educational_address,COMMUTE_TYPE,COUNT,TYPE,departure_SA22018_V1_NAME,departure_LATITUDE,departure_LONGITUDE,destination_SA22018_V1_NAME,destination_LATITUDE,destination_LONGITUDE,HAVERSINE_DISTANCE,DEPARTURE_NAME_2,DESTINATION_NAME_2,DEPARTURE_NAME_1,DESTINATION_NAME_1,cluster_count
E1248,Epsom Central-North,Auckland-University,OTHER,6,EDUCATION,Epsom Central-North,-36.88779009,174.76992615,Auckland-University,-36.85143057,174.76906469,4.043720350911797,Waitakere,Waitakere,Auckland,Auckland,26
E6973,Campus South,Campus South,OTHER,9,EDUCATION,Campus South,-45.86793792,170.51211679,Campus South,-45.86793792,170.51211679,0.0,Dunedin,Dunedin,Otago,Otago,8
E10323,St James,Rototuna South,OTHER,6,EDUCATION,St James,-37.73572255,175.28384883,Rototuna South,-37.73648973,175.26994776,1.2253937550198004,Hamilton,Hamilton,Waikato,Waikato,6
E11442,Papamoa Beach South,Doncaster,OTHER,6,EDUCATION,Papamoa Beach South,-37.70757761,176.31110176,Doncaster,-37.71059488,176.29681832,1.3005249030690458,Western Bay of Plenty,Western Bay of Plenty,Bay of Plenty,Bay of Plenty,6
E15140,Mount Cook East,Wellington University,OTHER,6,EDUCATION,Mount Cook East,-41.30251481,174.77750144,Wellington University,-41.289084,174.7676253,1.7061956941672174,Wellington,Wellington,Wellington,Wellington,27
E16704,Maungaraki,Maungaraki,OTHER,6,EDUCATION,Maungaraki,-41.20840978,174.87990307,Maungaraki,-41.20840978,174.87990307,0.0,Hutt city,Hutt city,Wellington,Wellington,4
E17656,Omaio,Grampians,OTHER,6,EDUCATION,Omaio,-41.32459713,173.24438648,Grampians,-41.29660057,173.27351504,3.9509858914837306,Nelson,Nelson,Nelson,Nelson,4
E18742,Bush Inn,Ilam University,OTHER,21,EDUCATION,Bush Inn,-43.52942223,172.576402,Ilam University,-43.52336127,172.57826459,0.6904752275536294,Christchurch,Christchurch,Canterbury,Canterbury,49
