id,SA2_name_usual_residence_address,SA2_name_workplace_address,COMMUTE_TYPE,COUNT,TYPE,departure_SA22018_V1_NAME,departure_LATITUDE,departure_LONGITUDE,destination_SA22018_V1_NAME,destination_LATITUDE,destination_LONGITUDE,HAVERSINE_DISTANCE,DEPARTURE_NAME_2,DESTINATION_NAME_2,DEPARTURE_NAME_1,DESTINATION_NAME_1,cluster_count
W407,Woodhill-Vinetown,Whangarei Central,BICYCLE,9,EDUCATION,Woodhill-Vinetown,-35.727035,174.30955264,Whangarei Central,-35.72846995,174.32430322,1.3410334340231038,Whangarei,Whangarei,Northland,Northland,7
W3387,Eden Terrace,Wynyard-Viaduct,BICYCLE,6,EDUCATION,Eden Terrace,-36.86462613,174.75964083,Wynyard-Viaduct,-36.843309399999995,174.75788827,2.3754357917413493,Waitakere,Waitakere,Auckland,Auckland,95
W40376,Waitohi (Marlborough District),Waitohi (Marlborough District),BICYCLE,21,EDUCATION,Waitohi (Marlborough District),-41.2943994,173.99961791,Waitohi (Marlborough District),-41.2943994,173.99961791,0.0,Marlborough,Marlborough,Marlborough,Marlborough,3
W23999,Te Puru,Te Puru,BICYCLE,6,EDUCATION,Te Puru,-36.89631822,175.00316112,Te Puru,-36.89631822,175.00316112,0.0,Manukau,Manukau,Auckland,Auckland,2
W24423,Thames South,Thames Central,BICYCLE,15,EDUCATION,Thames South,-37.1491222,175.55903757,Thames Central,-37.14032281,175.54142966,1.842028046834084,Thames-Coromandel,Thames-Coromandel,Waikato,Waikato,2
W24444,Whitianga South,Whitianga South,BICYCLE,42,EDUCATION,Whitianga South,-36.8336234,175.69356396,Whitianga South,-36.8336234,175.69356396,0.0,Thames-Coromandel,Thames-Coromandel,Waikato,Waikato,2
W24619,Te Aroha West,Te Aroha East,BICYCLE,6,EDUCATION,Te Aroha West,-37.55101925,175.70065739,Te Aroha East,-37.53376025,175.70924175,2.0629652053807974,Matamata-Piako,Matamata-Piako,Waikato,Waikato,2
W25164,Whitiora,Hamilton Central,BICYCLE,12,EDUCATION,Whitiora,-37.77756896,175.27048029,Hamilton Central,-37.78938082,175.28203067,1.6599430980910974,Hamilton,Hamilton,Waikato,Waikato,61
W24773,Morrinsville West,Morrinsville West,BICYCLE,9,EDUCATION,Morrinsville West,-37.65791668,175.51913057,Morrinsville West,-37.65791668,175.51913057,0.0,Matamata-Piako,Matamata-Piako,Waikato,Waikato,2
W24868,Tauranga Central,Tauranga Central,BICYCLE,12,EDUCATION,Tauranga Central,-37.67947411,176.16704264,Tauranga Central,-37.67947411,176.16704264,0.0,,,,,51
W26628,Matamata South,Matamata South,BICYCLE,15,EDUCATION,Matamata South,-37.81753128,175.77119821,Matamata South,-37.81753128,175.77119821,0.0,Matamata-Piako,Matamata-Piako,Waikato,Waikato,4
W27393,Monika Reserve,Kawerau Industrial,BICYCLE,9,EDUCATION,Monika Reserve,-38.09544004,176.67500308,Kawerau Industrial,-38.07123027,176.72175918,4.898297050329327,Whakatane,Whakatane,Bay of Plenty,Bay of Plenty,2
W27467,Trident,Allandale,BICYCLE,6,EDUCATION,Trident,-37.96899468,176.97770942,Allandale,-37.96801926,176.98635382,0.7654945243660405,Whakatane,Whakatane,Bay of Plenty,Bay of Plenty,10
W27589,Te Kuiti West,Te Kuiti East,BICYCLE,9,EDUCATION,Te Kuiti West,-38.33639894,175.16019027,Te Kuiti East,-38.33422954,175.1750142,1.3152632364284378,Waitomo,Waitomo,Waikato,Waikato,2
W27619,Strathmore (South Waikato District),Tokoroa Central,BICYCLE,6,EDUCATION,Strathmore (South Waikato District),-38.23232788,175.86534607,Tokoroa Central,-38.2230221,175.8734232,1.2523987932253329,South Waikato,South Waikato,Waikato,Waikato,4
W27687,Victoria,Rotorua Central,BICYCLE,6,EDUCATION,Victoria,-38.142893900000004,176.24450819999996,Rotorua Central,-38.13568521,176.25424012,1.1691502594876988,Rotorua,Rotorua,Bay of Plenty,Bay of Plenty,20
W27828,Bird Area,Taupo Central West,BICYCLE,15,EDUCATION,Bird Area,-38.69357961,176.0859815,Taupo Central West,-38.6847684,176.07304191,1.490372843323874,Taupo,Taupo,Waikato,Waikato,4
W29930,Te Hapara East,Gisborne Central,BICYCLE,9,EDUCATION,Te Hapara East,-38.6560244,178.01721277,Gisborne Central,-38.66778237,178.02299313,1.4004478113502266,Gisborne,Gisborne,Gisborne,Gisborne,14
W30508,Meeanee-Awatoto,Napier Central,BICYCLE,6,EDUCATION,Meeanee-Awatoto,-39.54411569,176.89304136,Napier Central,-39.49277802,176.91573492,6.031261870336076,Hastings,Napier,Hawke's Bay,Hawke's Bay,39
W31457,Waipukurau East,Waipukurau West,BICYCLE,9,EDUCATION,Waipukurau East,-40.00231546,176.56027065,Waipukurau West,-39.99738364,176.54048302,1.7724869214678274,Central Hawke's Bay,Central Hawke's Bay,Hawke's Bay,Hawke's Bay,2
W32077,Merrilands,New Plymouth Central,BICYCLE,15,EDUCATION,Merrilands,-39.06454623,174.10205958,New Plymouth Central,-39.05700192,174.07537454,2.4519662999261223,New Plymouth,New Plymouth,Taranaki,Taranaki,22
W32659,Hawera Central,Ramanui,BICYCLE,9,EDUCATION,Hawera Central,-39.59042249,174.28314512,Ramanui,-39.60612482,174.27478512,1.8872306082218293,South Taranaki,South Taranaki,Taranaki,Taranaki,4
W32817,St Johns Hill West,Whanganui Central,BICYCLE,15,EDUCATION,St Johns Hill West,-39.92023434,175.030642,Whanganui Central,-39.93513676,175.04701799,2.1669770888550257,Wanganui,Wanganui,Manawatu-Wanganui,Manawatu-Wanganui,24
W33216,Marton South,Marton North,BICYCLE,9,EDUCATION,Marton South,-40.08428893,175.38541594,Marton North,-40.06299097,175.37098077,2.6677937470736413,Rangitikei,Rangitikei,Manawatu-Wanganui,Manawatu-Wanganui,2
W33312,Milverton,Palmerston North Central,BICYCLE,6,EDUCATION,Milverton,-40.35969543,175.61983251,Palmerston North Central,-40.35537702,175.61010962,0.953571957105122,Palmerston North,Palmerston North,Manawatu-Wanganui,Manawatu-Wanganui,46
W33404,Kimbolton West,Feilding Central,BICYCLE,6,EDUCATION,Kimbolton West,-40.21815279,175.57020381,Feilding Central,-40.23865803,175.58114321,2.4619577423845067,Manawatu,Manawatu,Manawatu-Wanganui,Manawatu-Wanganui,4
W33448,Ohakea-Sanson,Ohakea-Sanson,BICYCLE,27,EDUCATION,Ohakea-Sanson,-40.21459412,175.39491461,Ohakea-Sanson,-40.21459412,175.39491461,0.0,Manawatu,Manawatu,Manawatu-Wanganui,Manawatu-Wanganui,2
W35008,Oriental Bay,Wellington Central,BICYCLE,21,EDUCATION,Oriental Bay,-41.29186473,174.79287237,Wellington Central,-41.2849345,174.77572593,1.6267186733287644,Wellington,Wellington,Wellington,Wellington,201
W34677,Kuripuni,Masterton Central,BICYCLE,12,EDUCATION,Kuripuni,-40.95167579,175.64326344,Masterton Central,-40.95047108,175.66167048,1.5516558477118805,Masterton,Masterton,Wellington,Wellington,9
W34716,Playford Park,Tararua,BICYCLE,6,EDUCATION,Playford Park,-40.62888671,175.29037198,Tararua,-40.64205371,175.30927003,2.1648424817334897,Horowhenua,Horowhenua,Manawatu-Wanganui,Manawatu-Wanganui,2
W35068,Otaki Beach,Otaki,BICYCLE,6,EDUCATION,Otaki Beach,-40.75542681,175.11598727,Otaki,-40.75304139,175.13966802,2.0122359651548503,Kapiti Coast,Kapiti Coast,Wellington,Wellington,2
W35285,Paraparaumu North,Paraparaumu Central,BICYCLE,12,EDUCATION,Paraparaumu North,-40.89457279999999,175.01141009,Paraparaumu Central,-40.90799495,174.99886348,1.8274082528396631,Kapiti Coast,Kapiti Coast,Wellington,Wellington,13
W37380,Poets Block,Trentham South,BICYCLE,6,EDUCATION,Poets Block,-41.12290419,175.04604601,Trentham South,-41.14890544,175.04082561,2.9240749258608414,Upper Hutt,Upper Hutt,Wellington,Wellington,3
W39408,Greytown,Greytown,BICYCLE,9,EDUCATION,Greytown,-41.08242941,175.45428378,Greytown,-41.08242941,175.45428378,0.0,South Wairarapa,South Wairarapa,Wellington,Wellington,2
W39465,Golden Bay/Mohua,Golden Bay/Mohua,BICYCLE,6,EDUCATION,Golden Bay/Mohua,-40.86935481,172.57195655,Golden Bay/Mohua,-40.86935481,172.57195655,0.0,Tasman,Tasman,Nelson,Nelson,2
W39470,Pohara-Abel Tasman,Takaka,BICYCLE,12,EDUCATION,Pohara-Abel Tasman,-40.89750912,172.92321196,Takaka,-40.86055176,172.81878698,9.693581382295983,Tasman,Tasman,Nelson,Nelson,3
W39579,Tahuna Hills,Nelson Airport,BICYCLE,9,EDUCATION,Tahuna Hills,-41.29106093,173.25332264,Nelson Airport,-41.2956675,173.22975091,2.034832663578045,Nelson,Nelson,Nelson,Nelson,54
W39533,Motueka North,Motueka East,BICYCLE,18,EDUCATION,Motueka North,-41.105891899999996,173.01318855,Motueka East,-41.12000591,173.01922240000005,1.6488048832934457,Tasman,Tasman,Nelson,Nelson,11
W39655,Moutere Hills,Moutere Hills,BICYCLE,9,EDUCATION,Moutere Hills,-41.26413088,173.0336074,Moutere Hills,-41.26413088,173.0336074,0.0,Tasman,Tasman,Nelson,Nelson,2
W40406,Whitney West,Whitney East,BICYCLE,6,EDUCATION,Whitney West,-41.52198108,173.9421136,Whitney East,-41.52059859,173.95891011,1.4067791123614768,Marlborough,Marlborough,Marlborough,Marlborough,17
W40719,Westport South,Westport North,BICYCLE,24,EDUCATION,Westport South,-41.76073382,171.60950019,Westport North,-41.74413804,171.60899375,1.8458446945211844,Buller,Buller,West Coast,West Coast,3
W40743,Greymouth Central,Greymouth Central,BICYCLE,6,EDUCATION,Greymouth Central,-42.45704831,171.19924986,Greymouth Central,-42.45704831,171.19924986,0.0,Grey,Grey,West Coast,West Coast,5
W40828,Hokitika Rural,Hokitika,BICYCLE,9,EDUCATION,Hokitika Rural,-42.78693668,170.96082934,Hokitika,-42.71867868,170.97186323,7.643224157239382,Westland,Westland,West Coast,West Coast,2
W43007,Riccarton East,Christchurch Central-West,BICYCLE,6,EDUCATION,Riccarton East,-43.53245227,172.61070266,Christchurch Central-West,-43.52780609,172.6306519,1.6892050523646305,Christchurch,Christchurch,Canterbury,Canterbury,384
W45394,Lilybrook,Rangiora Central,BICYCLE,9,EDUCATION,Lilybrook,-43.31092043,172.59368431,Rangiora Central,-43.30280578,172.59569594,0.9168720240206076,Waimakariri,Waimakariri,Canterbury,Canterbury,6
W47621,Ashburton East,Ashburton Central,BICYCLE,9,EDUCATION,Ashburton East,-43.90293675,171.75799844,Ashburton Central,-43.90252481,171.73537846,1.8128452753282367,Ashburton,Ashburton,Canterbury,Canterbury,7
W47665,Southbridge,Southbridge,BICYCLE,9,EDUCATION,Southbridge,-43.79254412,172.21023844,Southbridge,-43.79254412,172.21023844,0.0,Selwyn,Selwyn,Canterbury,Canterbury,2
W48010,Temuka East,Temuka West,BICYCLE,21,EDUCATION,Temuka East,-44.24725922,171.29783677,Temuka West,-44.23697154,171.27660085,2.0421243493872985,Timaru,Timaru,Canterbury,Canterbury,2
W48081,Highfield North,Timaru Central,BICYCLE,15,EDUCATION,Highfield North,-44.38615156,171.22318733,Timaru Central,-44.39838399,171.2514175,2.623248486087093,Timaru,Timaru,Canterbury,Canterbury,7
W48353,Waimate East,Waimate East,BICYCLE,6,EDUCATION,Waimate East,-44.73770602,171.04734729,Waimate East,-44.73770602,171.04734729,0.0,Waimate,Waimate,Canterbury,Canterbury,2
W48398,Oamaru Gardens,Oamaru Central,BICYCLE,9,EDUCATION,Oamaru Gardens,-45.09820391,170.94539726,Oamaru Central,-45.100715799999996,170.9718248,2.093020086806068,Waitaki,Waitaki,Otago,Otago,2
W48530,Campus North,Dunedin Central,BICYCLE,9,EDUCATION,Campus North,-45.86491215,170.51950247,Dunedin Central,-45.87712471,170.50291221,1.8692043787322592,Dunedin,Dunedin,Otago,Otago,51
W48603,Frankton,Queenstown Central,BICYCLE,18,EDUCATION,Frankton,-45.01825697,168.74585281,Queenstown Central,-45.0327315,168.65460343,7.3498342948868265,Queenstown-Lakes,Queenstown-Lakes,Otago,Otago,14
W48662,Cromwell West,Cromwell West,BICYCLE,42,EDUCATION,Cromwell West,-45.06411975,169.17047641,Cromwell West,-45.06411975,169.17047641,0.0,Central Otago,Central Otago,Otago,Otago,2
W48712,Wanaka North,Wanaka Central,BICYCLE,39,EDUCATION,Wanaka North,-44.68004109,169.15232063,Wanaka Central,-44.70519427,169.14994952,2.8031791253664733,Queenstown-Lakes,Queenstown-Lakes,Otago,Otago,10
W48746,Alexandra North,Alexandra South,BICYCLE,18,EDUCATION,Alexandra North,-45.24363835,169.38984744,Alexandra South,-45.25210421,169.37578541,1.4484635416903378,Central Otago,Central Otago,Otago,Otago,6
W50093,Richmond (Invercargill City),Invercargill Central,BICYCLE,24,EDUCATION,Richmond (Invercargill City),-46.40719619,168.36918138,Invercargill Central,-46.41489239,168.32850731,3.2336411984953366,Invercargill,Invercargill,Southland,Southland,20
W50633,Mataura,Mataura,BICYCLE,6,EDUCATION,Mataura,-46.18742074,168.87330231,Mataura,-46.18742074,168.87330231,0.0,Gore,Gore,Southland,Southland,2
W50218,Te Anau,Te Anau,BICYCLE,108,EDUCATION,Te Anau,-45.413515600000004,167.72303047,Te Anau,-45.413515600000004,167.72303047,0.0,Southland,Southland,Southland,Southland,3
