SA2_name_usual_residence_address,SA2_name_workplace_address,COMMUTE_TYPE,COUNT,TYPE,departure_SA22018_V1_NAME,departure_LATITUDE,departure_LONGITUDE,destination_SA22018_V1_NAME,destination_LATITUDE,destination_LONGITUDE,HAVERSINE_DISTANCE,DEPARTURE_NAME_2,DESTINATION_NAME_2
Balclutha North,Balclutha South,DRIVE_COMPANY_VEHICLE,54,EDUCATION,Balclutha North,-46.23245645,169.75291719999996,Balclutha South,-46.24449018,169.72255412,2.6913939760874017,Clutha,Clutha
Summerland North,Penrose,DRIVE_COMPANY_VEHICLE,6,EDUCATION,Summerland North,-36.87595448,174.61345826,Penrose,-36.91999811,174.82258914,19.230651097413887,Waitakere,Waitakere
Bellevue,Bellevue,DRIVE_COMPANY_VEHICLE,12,EDUCATION,Bellevue,-37.67938337,176.1292392,Bellevue,-37.67938337,176.1292392,0.0,Western Bay of Plenty,Western Bay of Plenty
Cashmere West,Cashmere West,DRIVE_COMPANY_VEHICLE,9,EDUCATION,Cashmere West,-43.57398844,172.62274596,Cashmere West,-43.57398844,172.62274596,0.0,Christchurch,Christchurch
Hauraki,North Harbour,DRIVE_COMPANY_VEHICLE,9,EDUCATION,Hauraki,-36.80062296,174.77694957,North Harbour,-36.74630474,174.71502975,8.179036056024662,Waitakere,Waitakere
Westport Rural,Westport South,DRIVE_COMPANY_VEHICLE,18,EDUCATION,Westport Rural,-41.78172508,171.64675725,Westport South,-41.76073382,171.60950019,3.8722892356272216,Buller,Buller
Rolleston North West,Hornby Central,DRIVE_COMPANY_VEHICLE,15,EDUCATION,Rolleston North West,-43.60086348,172.36340669999996,Hornby Central,-43.53921804,172.53566342,15.47830930782951,Selwyn,Christchurch
Takanini South,Newmarket,DRIVE_COMPANY_VEHICLE,6,EDUCATION,Takanini South,-37.04157360000001,174.93888309,Newmarket,-36.86853889,174.77706299,24.019769457668644,Franklin,Waitakere
Cockle Bay,Newmarket,DRIVE_COMPANY_VEHICLE,6,EDUCATION,Cockle Bay,-36.89765568,174.94328238,Newmarket,-36.86853889,174.77706299,15.134016728996425,Manukau,Waitakere
Te Marua,Upper Hutt Central,DRIVE_COMPANY_VEHICLE,9,EDUCATION,Te Marua,-41.08870706,175.14335145,Upper Hutt Central,-41.12711172,175.07626489999996,7.058912500765555,Upper Hutt,Upper Hutt
Papakura Kelvin,Manukau Central,DRIVE_COMPANY_VEHICLE,6,EDUCATION,Papakura Kelvin,-37.05933436,174.96239449,Manukau Central,-36.99138991,174.86947528,11.18583672414509,Franklin,Manukau
Point Chevalier West,Ellerslie West,DRIVE_COMPANY_VEHICLE,9,EDUCATION,Point Chevalier West,-36.86564859,174.70246177,Ellerslie West,-36.89897117,174.80612464,9.936616662214359,Waitakere,Waitakere
Bethlehem North,Tauriko,DRIVE_COMPANY_VEHICLE,6,EDUCATION,Bethlehem North,-37.69058759,176.10753065,Tauriko,-37.75604256,176.09165915,7.410918552738838,Western Bay of Plenty,Western Bay of Plenty
New Windsor South,North Harbour,DRIVE_COMPANY_VEHICLE,6,EDUCATION,New Windsor South,-36.90852211,174.71637156,North Harbour,-36.74630474,174.71502975,18.038143921303238,Waitakere,Waitakere
Waiorohi,Tauranga Central,DRIVE_COMPANY_VEHICLE,15,EDUCATION,Waiorohi,-37.87712037,176.14775568,Tauranga Central,-37.67947411,176.16704264,22.042533542392874,Western Bay of Plenty,
Rolleston South East,Rolleston Izone,DRIVE_COMPANY_VEHICLE,15,EDUCATION,Rolleston South East,-43.61058176,172.40183653,Rolleston Izone,-43.58400200000001,172.37100014,3.860234293418813,Selwyn,Selwyn
Wilkes Park,Brightwater,DRIVE_COMPANY_VEHICLE,6,EDUCATION,Wilkes Park,-41.34753186,173.18668242,Brightwater,-41.37680724,173.09986171,7.943453815740062,Tasman,Tasman
Pokeno,Pukekohe Central,DRIVE_COMPANY_VEHICLE,15,EDUCATION,Pokeno,-37.24416888,175.02021530000005,Pukekohe Central,-37.20891954,174.91332549999996,10.243456594540042,Franklin,Franklin
Mangapapa South,Hexton,DRIVE_COMPANY_VEHICLE,15,EDUCATION,Mangapapa South,-38.64907911,178.0142546,Hexton,-38.62021616,177.96813152,5.133231282808786,Gisborne,Gisborne
Oaklands West,Sydenham Central,DRIVE_COMPANY_VEHICLE,12,EDUCATION,Oaklands West,-43.56943685,172.54947090000005,Sydenham Central,-43.54360725,172.6376644,7.6652659322456,Christchurch,Christchurch
Fraser Street,Te Awamutu North,DRIVE_COMPANY_VEHICLE,6,EDUCATION,Fraser Street,-38.02172341,175.32426247,Te Awamutu North,-37.99873125,175.32167082,2.566674305969524,Waipa,Waipa
Papanui North,Middleton,DRIVE_COMPANY_VEHICLE,6,EDUCATION,Papanui North,-43.48926229,172.5969871,Middleton,-43.54208461,172.58331091,5.9762073741935575,Christchurch,Christchurch
Mangere Bridge,Auckland Airport,DRIVE_COMPANY_VEHICLE,18,EDUCATION,Mangere Bridge,-36.94356976,174.78854005,Auckland Airport,-36.9891029,174.77400859,5.2250612876655405,Manukau,Manukau
Helensburgh,Dunedin Central,DRIVE_COMPANY_VEHICLE,12,EDUCATION,Helensburgh,-45.84936353,170.48340641,Dunedin Central,-45.87712471,170.50291221,3.436606269826786,Dunedin,Dunedin
Glendale,Wainuiomata Central,DRIVE_COMPANY_VEHICLE,6,EDUCATION,Glendale,-41.2429916,174.95473935,Wainuiomata Central,-41.26139998,174.94068073,2.3603261210281157,Hutt city,Hutt city
Pukekohe West,Manukau Central,DRIVE_COMPANY_VEHICLE,9,EDUCATION,Pukekohe West,-37.20097025,174.88803986,Manukau Central,-36.99138991,174.86947528,23.362364225222997,Franklin,Manukau
Karori South,Pipitea-Kaiwharawhara,DRIVE_COMPANY_VEHICLE,6,EDUCATION,Karori South,-41.28902351,174.73328551,Pipitea-Kaiwharawhara,-41.27624822,174.78772639,4.76566740733437,Wellington,Wellington
Malvern,Hornby Central,DRIVE_COMPANY_VEHICLE,6,EDUCATION,Malvern,-43.5022149,172.63050731,Hornby Central,-43.53921804,172.53566342,8.683928952521889,Christchurch,Christchurch
Paeroa Rural,Paeroa Rural,DRIVE_COMPANY_VEHICLE,18,EDUCATION,Paeroa Rural,-37.39345524,175.57864603,Paeroa Rural,-37.39345524,175.57864603,0.0,Hauraki,Hauraki
Arakura,Hutt Central North,DRIVE_COMPANY_VEHICLE,6,EDUCATION,Arakura,-41.23870795,174.94479641,Hutt Central North,-41.20872236,174.90664869,4.6147846220823645,Hutt city,Hutt city
Waitohi (Marlborough District),Waitohi (Marlborough District),DRIVE_COMPANY_VEHICLE,54,EDUCATION,Waitohi (Marlborough District),-41.2943994,173.99961791,Waitohi (Marlborough District),-41.2943994,173.99961791,0.0,Marlborough,Marlborough
St Albans North,St Albans North,DRIVE_COMPANY_VEHICLE,9,EDUCATION,St Albans North,-43.5100332,172.63729113,St Albans North,-43.5100332,172.63729113,0.0,Christchurch,Christchurch
Baverstock,East Tamaki,DRIVE_COMPANY_VEHICLE,30,EDUCATION,Baverstock,-36.95525862,174.91670173,East Tamaki,-36.93823242,174.88712871,3.2389721132680185,Manukau,Manukau
Pihauatua,Palmerston North Central,DRIVE_COMPANY_VEHICLE,9,EDUCATION,Pihauatua,-40.45284951,175.60466791,Palmerston North Central,-40.35537702,175.61010962,10.8482362631541,Palmerston North,Palmerston North
Hokowhitu South,Tremaine,DRIVE_COMPANY_VEHICLE,18,EDUCATION,Hokowhitu South,-40.36620394,175.64166717,Tremaine,-40.33969042,175.59865691,4.687743931158901,Palmerston North,Palmerston North
Bryndwr South,Christchurch Central,DRIVE_COMPANY_VEHICLE,6,EDUCATION,Bryndwr South,-43.5066813,172.59635325,Christchurch Central,-43.53243368,172.63601635,4.292752048810971,Christchurch,Christchurch
Ararimu,Pukekohe Central,DRIVE_COMPANY_VEHICLE,6,EDUCATION,Ararimu,-37.14686222,175.08246983,Pukekohe Central,-37.20891954,174.91332549999996,16.497935193297288,Franklin,Franklin
Bayview East,Bayview East,DRIVE_COMPANY_VEHICLE,6,EDUCATION,Bayview East,-36.76999591,174.71337437,Bayview East,-36.76999591,174.71337437,0.0,Waitakere,Waitakere
Wellsford,Silverdale Central (Auckland),DRIVE_COMPANY_VEHICLE,9,EDUCATION,Wellsford,-36.2928483,174.52152782,Silverdale Central (Auckland),-36.62402013,174.67493059999995,39.29719017366868,Rodney,Rodney
Waiatarua,Henderson Central,DRIVE_COMPANY_VEHICLE,18,EDUCATION,Waiatarua,-36.92234659,174.59471127,Henderson Central,-36.88968581,174.62928426,4.75803811462183,Waitakere,Waitakere
Mount Wellington West,Mount Wellington West,DRIVE_COMPANY_VEHICLE,9,EDUCATION,Mount Wellington West,-36.91116791,174.82771093,Mount Wellington West,-36.91116791,174.82771093,0.0,Waitakere,Waitakere
Takaka Hills,Motueka West,DRIVE_COMPANY_VEHICLE,9,EDUCATION,Takaka Hills,-41.05045126,172.92413331,Motueka West,-41.12544913,172.99560963,10.267845634856275,Tasman,Tasman
Te Awamutu Stadium,Frankton Junction ,DRIVE_COMPANY_VEHICLE,12,EDUCATION,Te Awamutu Stadium,-38.0160303,175.31531928,Frankton Junction,-37.79650916,175.26255885,24.844661361457707,Waipa,Hamilton
Totara Park,Petone Central,DRIVE_COMPANY_VEHICLE,12,EDUCATION,Totara Park,-41.1093256,175.08443163,Petone Central,-41.22362356,174.86969444,22.014366406992846,Upper Hutt,Hutt city
Springvale East,Whanganui Central,DRIVE_COMPANY_VEHICLE,33,EDUCATION,Springvale East,-39.92557706,175.02322505,Whanganui Central,-39.93513676,175.04701799,2.290369390762002,Wanganui,Wanganui
Kopurererua,Tauranga Central,DRIVE_COMPANY_VEHICLE,9,EDUCATION,Kopurererua,-37.77550916,176.10390836,Tauranga Central,-37.67947411,176.16704264,12.035900906793525,Western Bay of Plenty,
Britannia,Nelson Central-Trafalgar,DRIVE_COMPANY_VEHICLE,21,EDUCATION,Britannia,-41.26846575,173.27030449999995,Nelson Central-Trafalgar,-41.27273863,173.28210878,1.094985883634707,Nelson,Nelson
Bell Block East,Waiwhakaiho-Bell Block South,DRIVE_COMPANY_VEHICLE,42,EDUCATION,Bell Block East,-39.0162041,174.17002393,Waiwhakaiho-Bell Block South,-39.03639644,174.16426596,2.2997180602128378,New Plymouth,New Plymouth
Makino,Palmerston North Central,DRIVE_COMPANY_VEHICLE,12,EDUCATION,Makino,-40.20622477,175.56555066,Palmerston North Central,-40.35537702,175.61010962,17.010258223760008,Manawatu,Palmerston North
Crawshaw,Te Rapa North,DRIVE_COMPANY_VEHICLE,6,EDUCATION,Crawshaw,-37.77209972,175.23499752,Te Rapa North,-37.73226423,175.22072362,4.603842728926606,Hamilton,Hamilton
Donovan Park,Avenal,DRIVE_COMPANY_VEHICLE,6,EDUCATION,Donovan Park,-46.37529256,168.35657113,Avenal,-46.40074343,168.35272935,2.8453063333989466,Invercargill,Invercargill
Waikouaiti,Waikouaiti,DRIVE_COMPANY_VEHICLE,9,EDUCATION,Waikouaiti,-45.60312292,170.66725767,Waikouaiti,-45.60312292,170.66725767,0.0,Dunedin,Dunedin
Hauraki,Wairau Valley ,DRIVE_COMPANY_VEHICLE,12,EDUCATION,Hauraki,-36.80062296,174.77694957,Wairau Valley,-36.77355541,174.73453173,4.829858080941965,Waitakere,Waitakere
Acacia Bay,Acacia Bay,DRIVE_COMPANY_VEHICLE,12,EDUCATION,Acacia Bay,-38.70123976,176.01956806,Acacia Bay,-38.70123976,176.01956806,0.0,Taupo,Taupo
Victory,Nelson Central-Trafalgar,DRIVE_COMPANY_VEHICLE,12,EDUCATION,Victory,-41.28580137,173.26988584,Nelson Central-Trafalgar,-41.27273863,173.28210878,1.7756752454128968,Nelson,Nelson
Bayview East,North Harbour,DRIVE_COMPANY_VEHICLE,24,EDUCATION,Bayview East,-36.76999591,174.71337437,North Harbour,-36.74630474,174.71502975,2.638462416382485,Waitakere,Waitakere
Rolleston South East,Sockburn South,DRIVE_COMPANY_VEHICLE,21,EDUCATION,Rolleston South East,-43.61058176,172.40183653,Sockburn South,-43.5449149,172.56350496,14.930373857700653,Selwyn,Christchurch
Lake Manuwai-Kapiro,Kerikeri Central,DRIVE_COMPANY_VEHICLE,33,EDUCATION,Lake Manuwai-Kapiro,-35.18267324,173.86535013,Kerikeri Central,-35.22507309,173.95096304,9.095869218805976,Far North,Far North
Mount Cargill,Mount Cargill,DRIVE_COMPANY_VEHICLE,18,EDUCATION,Mount Cargill,-45.78374853,170.56970937,Mount Cargill,-45.78374853,170.56970937,0.0,Dunedin,Dunedin
Welcome Bay South,Gate Pa,DRIVE_COMPANY_VEHICLE,6,EDUCATION,Welcome Bay South,-37.73637425,176.19743547,Gate Pa,-37.71588753,176.13556748,5.898842686419338,Western Bay of Plenty,Western Bay of Plenty
Longlands-Pukahu,Omahu Strip,DRIVE_COMPANY_VEHICLE,18,EDUCATION,Longlands-Pukahu,-39.67130041,176.82499355,Omahu Strip,-39.61309296,176.78725679,7.2341077609581586,Hastings,Hastings city
The Wood,The Wood,DRIVE_COMPANY_VEHICLE,6,EDUCATION,The Wood,-41.26709294,173.29239874,The Wood,-41.26709294,173.29239874,0.0,Nelson,Nelson
Massey South,Kumeu-Huapai,DRIVE_COMPANY_VEHICLE,9,EDUCATION,Massey South,-36.84994988,174.61625895,Kumeu-Huapai,-36.76998293,174.54286666,11.034343067638568,Waitakere,Rodney
Belmont (Auckland),Wairau Valley ,DRIVE_COMPANY_VEHICLE,12,EDUCATION,Belmont (Auckland),-36.80517747,174.78818395,Wairau Valley,-36.77355541,174.73453173,5.932138184972754,Waitakere,Waitakere
Blockhouse Bay North,New Lynn Central,DRIVE_COMPANY_VEHICLE,6,EDUCATION,Blockhouse Bay North,-36.91452187,174.69660926,New Lynn Central,-36.90748467,174.68596571,1.227919510240522,Waitakere,Waitakere
Matawaia-Taumarere,Matawaia-Taumarere,DRIVE_COMPANY_VEHICLE,9,EDUCATION,Matawaia-Taumarere,-35.49406405,173.95266307,Matawaia-Taumarere,-35.49406405,173.95266307,0.0,Far North,Far North
Burwood,Burwood,DRIVE_COMPANY_VEHICLE,12,EDUCATION,Burwood,-43.49555459,172.68488895,Burwood,-43.49555459,172.68488895,0.0,Christchurch,Christchurch
Kimbolton South,Tremaine,DRIVE_COMPANY_VEHICLE,21,EDUCATION,Kimbolton South,-40.22630659,175.57801558,Tremaine,-40.33969042,175.59865691,12.72870784686042,Manawatu,Palmerston North
Waitikiri,Lancaster Park,DRIVE_COMPANY_VEHICLE,15,EDUCATION,Waitikiri,-43.46773853,172.6744824,Lancaster Park,-43.5413884,172.6534567,8.363216105174835,Christchurch,Christchurch
Leamington Central,Te Rapa North,DRIVE_COMPANY_VEHICLE,6,EDUCATION,Leamington Central,-37.91053559,175.47246285,Te Rapa North,-37.73226423,175.22072362,29.696337451502263,Waipa,Hamilton
Mount Holdsworth,Masterton Central,DRIVE_COMPANY_VEHICLE,24,EDUCATION,Mount Holdsworth,-40.91709663,175.45136445,Masterton Central,-40.95047108,175.66167048,18.052138966756576,Carterton,Masterton
Te Aroha East,Te Aroha West,DRIVE_COMPANY_VEHICLE,6,EDUCATION,Te Aroha East,-37.53376025,175.70924175,Te Aroha West,-37.55101925,175.70065739,2.0629652053807974,Matamata-Piako,Matamata-Piako
Eastern Bays ,Alicetown-Melling,DRIVE_COMPANY_VEHICLE,6,EDUCATION,Eastern Bays,-41.28078028,174.90926531,Alicetown-Melling,-41.21402786,174.89365185,7.536437755368844,Hutt city,Hutt city
Nayland,Nelson Central-Trafalgar,DRIVE_COMPANY_VEHICLE,15,EDUCATION,Nayland,-41.30432817,173.23648616,Nelson Central-Trafalgar,-41.27273863,173.28210878,5.183476232911013,Nelson,Nelson
Waimairi Beach,Bromley North,DRIVE_COMPANY_VEHICLE,9,EDUCATION,Waimairi Beach,-43.48124273,172.71946258,Bromley North,-43.53482145,172.70629272,6.051615961397332,Christchurch,Christchurch
Brookfield East,Mount Maunganui Central,DRIVE_COMPANY_VEHICLE,27,EDUCATION,Brookfield East,-37.68730456,176.14143485,Mount Maunganui Central,-37.66423891,176.19448097,5.3266533019316435,Western Bay of Plenty,Western Bay of Plenty
Orewa North,Penrose,DRIVE_COMPANY_VEHICLE,9,EDUCATION,Orewa North,-36.58108865,174.67586463,Penrose,-36.91999811,174.82258914,39.88791711797379,Rodney,Waitakere
Stokes Valley North,Gracefield,DRIVE_COMPANY_VEHICLE,21,EDUCATION,Stokes Valley North,-41.166931700000006,174.99312135,Gracefield,-41.24017306,174.91075379,10.668181987828918,Hutt city,Hutt city
Shotover Country,Frankton,DRIVE_COMPANY_VEHICLE,63,EDUCATION,Shotover Country,-45.00679253,168.77572546,Frankton,-45.01825697,168.74585281,2.6719794073943968,Queenstown-Lakes,Queenstown-Lakes
Gate Pa,Greerton South,DRIVE_COMPANY_VEHICLE,12,EDUCATION,Gate Pa,-37.71588753,176.13556748,Greerton South,-37.72765679,176.12518714,1.5956840156020025,Western Bay of Plenty,Western Bay of Plenty
Sunnyhills East,Manukau Central,DRIVE_COMPANY_VEHICLE,6,EDUCATION,Sunnyhills East,-36.90137998,174.89140685,Manukau Central,-36.99138991,174.86947528,10.196645512650619,Manukau,Manukau
Ladbrooks,Sockburn South,DRIVE_COMPANY_VEHICLE,6,EDUCATION,Ladbrooks,-43.63935048,172.52476378,Sockburn South,-43.5449149,172.56350496,10.954468099084199,Selwyn,Christchurch
Dairy Flat West,Dairy Flat West,DRIVE_COMPANY_VEHICLE,15,EDUCATION,Dairy Flat West,-36.67100483,174.61891208,Dairy Flat West,-36.67100483,174.61891208,0.0,Rodney,Rodney
Travis Wetlands,Middleton,DRIVE_COMPANY_VEHICLE,9,EDUCATION,Travis Wetlands,-43.48560388,172.68870014,Middleton,-43.54208461,172.58331091,10.567309677120939,Christchurch,Christchurch
West Harbour West,Whenuapai,DRIVE_COMPANY_VEHICLE,6,EDUCATION,West Harbour West,-36.81872701,174.62254037,Whenuapai,-36.79162758,174.62143068,3.0149383158541747,Waitakere,Waitakere
Welbourn,Welbourn,DRIVE_COMPANY_VEHICLE,9,EDUCATION,Welbourn,-39.08571024,174.09311599999995,Welbourn,-39.08571024,174.09311599999995,0.0,New Plymouth,New Plymouth
Maraetai,Penrose,DRIVE_COMPANY_VEHICLE,18,EDUCATION,Maraetai,-36.88774867,175.03797111,Penrose,-36.91999811,174.82258914,19.483816889047013,Manukau,Waitakere
Henderson Valley,Penrose,DRIVE_COMPANY_VEHICLE,6,EDUCATION,Henderson Valley,-36.90641583,174.56917384,Penrose,-36.91999811,174.82258914,22.58056692229791,Waitakere,Waitakere
Mount Wellington Central,East Tamaki,DRIVE_COMPANY_VEHICLE,18,EDUCATION,Mount Wellington Central,-36.90833619,174.84460805,East Tamaki,-36.93823242,174.88712871,5.033693684715253,Waitakere,Manukau
Sydenham North,Middleton,DRIVE_COMPANY_VEHICLE,9,EDUCATION,Sydenham North,-43.55054464,172.64356518,Middleton,-43.54208461,172.58331091,4.946530460991361,Christchurch,Christchurch
Pegasus,Middleton,DRIVE_COMPANY_VEHICLE,12,EDUCATION,Pegasus,-43.31136296,172.6965139,Middleton,-43.54208461,172.58331091,27.235178734206013,Waimakariri,Christchurch
Rolleston South West,Sockburn South,DRIVE_COMPANY_VEHICLE,15,EDUCATION,Rolleston South West,-43.6149097,172.37458523,Sockburn South,-43.5449149,172.56350496,17.092517858942056,Selwyn,Christchurch
Regents Park,Sockburn South,DRIVE_COMPANY_VEHICLE,12,EDUCATION,Regents Park,-43.47061675,172.60263602,Sockburn South,-43.5449149,172.56350496,8.843804994442664,Christchurch,Christchurch
Parkvale,Omahu Strip,DRIVE_COMPANY_VEHICLE,15,EDUCATION,Parkvale,-39.64945934,176.86097554,Omahu Strip,-39.61309296,176.78725679,7.4971965595224335,Hastings city,Hastings city
Jellie Park,Lancaster Park,DRIVE_COMPANY_VEHICLE,6,EDUCATION,Jellie Park,-43.51329391,172.58360326,Lancaster Park,-43.5413884,172.6534567,6.440109277296392,Christchurch,Christchurch
Hornby West,Sockburn South,DRIVE_COMPANY_VEHICLE,12,EDUCATION,Hornby West,-43.54456745,172.5156459,Sockburn South,-43.5449149,172.56350496,3.857545384953009,Christchurch,Christchurch
Templemore,Nelson Airport,DRIVE_COMPANY_VEHICLE,21,EDUCATION,Templemore,-41.34152248,173.20418736,Nelson Airport,-41.2956675,173.22975091,5.527741248312644,Tasman,Nelson
Kauri,Kamo West,DRIVE_COMPANY_VEHICLE,12,EDUCATION,Kauri,-35.62944367,174.28665672,Kamo West,-35.67006476,174.29507452,4.5804511019908585,Whangarei,Whangarei
Acacia Bay,Tauhara,DRIVE_COMPANY_VEHICLE,42,EDUCATION,Acacia Bay,-38.70123976,176.01956806,Tauhara,-38.67355739999999,176.11357314,8.720509522295663,Taupo,Taupo
Atawhai,Port Nelson,DRIVE_COMPANY_VEHICLE,9,EDUCATION,Atawhai,-41.24786852,173.31976671,Port Nelson,-41.26152211,173.27796148,3.8102332468322766,Nelson,Nelson
Waitara East,Waitara West,DRIVE_COMPANY_VEHICLE,15,EDUCATION,Waitara East,-38.99532406,174.24390005,Waitara West,-38.9975014,174.2265459,1.5191462681442232,New Plymouth,New Plymouth
Brightwater,Appleby,DRIVE_COMPANY_VEHICLE,6,EDUCATION,Brightwater,-41.37680724,173.09986171,Appleby,-41.33424814,173.13744640000004,5.6776879107868155,Tasman,Tasman
Te Manatu,Te Manatu,DRIVE_COMPANY_VEHICLE,9,EDUCATION,Te Manatu,-37.72619876,175.28195734,Te Manatu,-37.72619876,175.28195734,0.0,Hamilton,Hamilton
Tareha Reserve,Hastings Central,DRIVE_COMPANY_VEHICLE,6,EDUCATION,Tareha Reserve,-39.54400792,176.85143036,Hastings Central,-39.63962329,176.84642759,10.640582476501251,Hastings,Hastings city
Mount St John,Mount St John,DRIVE_COMPANY_VEHICLE,6,EDUCATION,Mount St John,-36.88236812,174.78035947,Mount St John,-36.88236812,174.78035947,0.0,Waitakere,Waitakere
Ravensbourne-St Leonards,Harbourside,DRIVE_COMPANY_VEHICLE,6,EDUCATION,Ravensbourne-St Leonards,-45.85250406,170.56534806,Harbourside,-45.86782727,170.53130076,3.1391839252257845,Dunedin,Dunedin
Awaruku,Penrose,DRIVE_COMPANY_VEHICLE,12,EDUCATION,Awaruku,-36.69990012,174.72732927,Penrose,-36.91999811,174.82258914,25.9014639451587,Waitakere,Waitakere
Bethlehem South,Greerton South,DRIVE_COMPANY_VEHICLE,6,EDUCATION,Bethlehem South,-37.72532991,176.1067655,Greerton South,-37.72765679,176.12518714,1.6406872253341065,Western Bay of Plenty,Western Bay of Plenty
Takaro South,Palmerston North Central,DRIVE_COMPANY_VEHICLE,12,EDUCATION,Takaro South,-40.35685753,175.59360268,Palmerston North Central,-40.35537702,175.61010962,1.4083598550225516,Palmerston North,Palmerston North
Ngongotaha East,Ngapuna,DRIVE_COMPANY_VEHICLE,6,EDUCATION,Ngongotaha East,-38.06283551,176.21388396,Ngapuna,-38.14682269,176.27047436,10.570403090973716,Rotorua,Rotorua
Parnell West,Parnell West,DRIVE_COMPANY_VEHICLE,12,EDUCATION,Parnell West,-36.85679261,174.77798053,Parnell West,-36.85679261,174.77798053,0.0,Waitakere,Waitakere
Saint Andrews East,Frankton Junction ,DRIVE_COMPANY_VEHICLE,24,EDUCATION,Saint Andrews East,-37.75334806,175.26167671,Frankton Junction,-37.79650916,175.26255885,4.799921570505734,Hamilton,Hamilton
Normandale,Alicetown-Melling,DRIVE_COMPANY_VEHICLE,6,EDUCATION,Normandale,-41.20345009,174.89320848,Alicetown-Melling,-41.21402786,174.89365185,1.1767789935639363,Hutt city,Hutt city
Rototuna Central,Te Rapa South,DRIVE_COMPANY_VEHICLE,54,EDUCATION,Rototuna Central,-37.72662295,175.26539165,Te Rapa South,-37.76141322,175.24114614,4.417024349966169,Hamilton,Hamilton
Saint Johns West,East Tamaki,DRIVE_COMPANY_VEHICLE,12,EDUCATION,Saint Johns West,-36.88206283,174.83365741,East Tamaki,-36.93823242,174.88712871,7.849266284986822,Waitakere,Manukau
Mount Roskill White Swan,Penrose,DRIVE_COMPANY_VEHICLE,12,EDUCATION,Mount Roskill White Swan,-36.91484469,174.72598544,Penrose,-36.91999811,174.82258914,8.607220212103964,Waitakere,Waitakere
Stratford North,Stratford Central,DRIVE_COMPANY_VEHICLE,24,EDUCATION,Stratford North,-39.32802895,174.28261319,Stratford Central,-39.3375964,174.28910646,1.2015257510911064,Stratford,Stratford
Riverview,Kaikohe,DRIVE_COMPANY_VEHICLE,9,EDUCATION,Riverview,-35.20805962,173.9624342,Kaikohe,-35.40792422,173.79767516,26.78467541682587,Far North,Far North
Wembley Park,Whanganui Central,DRIVE_COMPANY_VEHICLE,18,EDUCATION,Wembley Park,-39.90764024,175.06400242,Whanganui Central,-39.93513676,175.04701799,3.3831957496885936,Wanganui,Wanganui
Sovereign Palms,Southbrook,DRIVE_COMPANY_VEHICLE,6,EDUCATION,Sovereign Palms,-43.36711702,172.66837672,Southbrook,-43.32718073,172.59765801,7.240203771056534,Waimakariri,Waimakariri
Te Manatu,Kirikiriroa,DRIVE_COMPANY_VEHICLE,6,EDUCATION,Te Manatu,-37.72619876,175.28195734,Kirikiriroa,-37.7819599,175.27469286,6.233161551938426,Hamilton,Hamilton
Mahora,Onekawa West,DRIVE_COMPANY_VEHICLE,12,EDUCATION,Mahora,-39.62404962,176.84888085,Onekawa West,-39.49700088,176.88218064,14.412707550071149,Hastings city,Hastings
Merrilands,Waiwhakaiho-Bell Block South,DRIVE_COMPANY_VEHICLE,39,EDUCATION,Merrilands,-39.06454623,174.10205958,Waiwhakaiho-Bell Block South,-39.03639644,174.16426596,6.217142416127162,New Plymouth,New Plymouth
Tauranga Central,Tauranga Central,DRIVE_COMPANY_VEHICLE,24,EDUCATION,Tauranga Central,-37.67947411,176.16704264,Tauranga Central,-37.67947411,176.16704264,0.0,,
Nawton West,Te Rapa South,DRIVE_COMPANY_VEHICLE,24,EDUCATION,Nawton West,-37.78502392,175.23357387,Te Rapa South,-37.76141322,175.24114614,2.708436790773319,Hamilton,Hamilton
Taihape,Taihape,DRIVE_COMPANY_VEHICLE,51,EDUCATION,Taihape,-39.67806733,175.79677339,Taihape,-39.67806733,175.79677339,0.0,Rangitikei,Rangitikei
Highlands Park (New Plymouth District),Waiwhakaiho-Bell Block South,DRIVE_COMPANY_VEHICLE,39,EDUCATION,Highlands Park (New Plymouth District),-39.08069461,174.10443117,Waiwhakaiho-Bell Block South,-39.03639644,174.16426596,7.138188021130611,New Plymouth,New Plymouth
South Hill,South Hill,DRIVE_COMPANY_VEHICLE,6,EDUCATION,South Hill,-45.10579567,170.96138565,South Hill,-45.10579567,170.96138565,0.0,Waitaki,Waitaki
Henderson North,Eden Terrace,DRIVE_COMPANY_VEHICLE,6,EDUCATION,Henderson North,-36.87606154,174.62534230000003,Eden Terrace,-36.86462613,174.75964083,12.014061322434545,Waitakere,Waitakere
Greenhithe West,North Harbour,DRIVE_COMPANY_VEHICLE,51,EDUCATION,Greenhithe West,-36.77353411,174.67354745,North Harbour,-36.74630474,174.71502975,4.7773818092632405,Waitakere,Waitakere
Orewa Central,Silverdale Central (Auckland),DRIVE_COMPANY_VEHICLE,9,EDUCATION,Orewa Central,-36.58726477,174.69445280000005,Silverdale Central (Auckland),-36.62402013,174.67493059999995,4.443007606895337,Rodney,Rodney
Millwater North,Silverdale Central (Auckland),DRIVE_COMPANY_VEHICLE,12,EDUCATION,Millwater North,-36.6014983,174.67227556,Silverdale Central (Auckland),-36.62402013,174.67493059999995,2.51550025530891,Rodney,Rodney
Drury Rural,Auckland Airport,DRIVE_COMPANY_VEHICLE,9,EDUCATION,Drury Rural,-37.11220768,174.97476145,Auckland Airport,-36.9891029,174.77400859,22.467340181691675,Franklin,Manukau
Halfway Bush,Campus South,DRIVE_COMPANY_VEHICLE,9,EDUCATION,Halfway Bush,-45.85706687,170.46654228,Campus South,-45.86793792,170.51211679,3.730313395027282,Dunedin,Dunedin
Templeton,Hornby Central,DRIVE_COMPANY_VEHICLE,9,EDUCATION,Templeton,-43.55260267,172.46962786,Hornby Central,-43.53921804,172.53566342,5.526417840446378,Christchurch,Christchurch
Pukekawa,Pukekawa,DRIVE_COMPANY_VEHICLE,18,EDUCATION,Pukekawa,-37.35591115,175.00526866,Pukekawa,-37.35591115,175.00526866,0.0,Franklin,Franklin
Glenfield North,North Harbour,DRIVE_COMPANY_VEHICLE,30,EDUCATION,Glenfield North,-36.7738809,174.72661346,North Harbour,-36.74630474,174.71502975,3.2353100163831376,Waitakere,Waitakere
West Harbour West,Henderson Central,DRIVE_COMPANY_VEHICLE,12,EDUCATION,West Harbour West,-36.81872701,174.62254037,Henderson Central,-36.88968581,174.62928426,7.913041057018577,Waitakere,Waitakere
Leamington East,Cambridge Central,DRIVE_COMPANY_VEHICLE,24,EDUCATION,Leamington East,-37.902915,175.48298816,Cambridge Central,-37.89316701,175.47159053,1.4748071394925988,Waipa,Waipa
Whareama,Masterton Central,DRIVE_COMPANY_VEHICLE,9,EDUCATION,Whareama,-40.91901694,175.98994746,Masterton Central,-40.95047108,175.66167048,27.79711837369071,Masterton,Masterton
Puketapu-Eskdale,Omahu Strip,DRIVE_COMPANY_VEHICLE,12,EDUCATION,Puketapu-Eskdale,-39.43779470000001,176.79125757,Omahu Strip,-39.61309296,176.78725679,19.495297294426173,Hastings,Hastings city
Otatara,Woodend-Greenhills ,DRIVE_COMPANY_VEHICLE,12,EDUCATION,Otatara,-46.43520129,168.28791931,Woodend-Greenhills,-46.52117182,168.37470824,11.642510376868398,Invercargill,Invercargill
Rakaia,Rakaia,DRIVE_COMPANY_VEHICLE,27,EDUCATION,Rakaia,-43.74700637,172.00903425,Rakaia,-43.74700637,172.00903425,0.0,Ashburton,Ashburton
Sunnyhills East,Sunnyhills East,DRIVE_COMPANY_VEHICLE,6,EDUCATION,Sunnyhills East,-36.90137998,174.89140685,Sunnyhills East,-36.90137998,174.89140685,0.0,Manukau,Manukau
Raglan,Te Uku,DRIVE_COMPANY_VEHICLE,12,EDUCATION,Raglan,-37.81138720000001,174.8538483,Te Uku,-37.88322634,174.93821165,10.894117877785463,Waikato,Waikato
Alexandra South,Alexandra North,DRIVE_COMPANY_VEHICLE,87,EDUCATION,Alexandra South,-45.25210421,169.37578541,Alexandra North,-45.24363835,169.38984744,1.4484635416903378,Central Otago,Central Otago
Puketona-Waitangi,Kerikeri Central,DRIVE_COMPANY_VEHICLE,6,EDUCATION,Puketona-Waitangi,-35.27991822,174.00095246,Kerikeri Central,-35.22507309,173.95096304,7.602382083225976,Far North,Far North
Palmerston North Hospital,Takaro North,DRIVE_COMPANY_VEHICLE,6,EDUCATION,Palmerston North Hospital,-40.34174356,175.61482217,Takaro North,-40.34988583,175.59869127,1.6396762593809877,Palmerston North,Palmerston North
Kaipara Hills,Silverdale Central (Auckland),DRIVE_COMPANY_VEHICLE,6,EDUCATION,Kaipara Hills,-36.46348663,174.48881947,Silverdale Central (Auckland),-36.62402013,174.67493059999995,24.394004131509003,Rodney,Rodney
Oakleigh-Mangapai,Port-Limeburners,DRIVE_COMPANY_VEHICLE,33,EDUCATION,Oakleigh-Mangapai,-35.89588695,174.21595621,Port-Limeburners,-35.74927345,174.33075178,19.31062564729867,Whangarei,Whangarei
Sandringham North,Ellerslie West,DRIVE_COMPANY_VEHICLE,6,EDUCATION,Sandringham North,-36.88053268,174.73988878,Ellerslie West,-36.89897117,174.80612464,6.237152496749473,Waitakere,Waitakere
Glen Eden Central,Onehunga-Te Papapa Industrial,DRIVE_COMPANY_VEHICLE,6,EDUCATION,Glen Eden Central,-36.91560255,174.65302059,Onehunga-Te Papapa Industrial,-36.92606886,174.79489131,12.665405432622947,Waitakere,Waitakere
Wanaka West,Wanaka Waterfront,DRIVE_COMPANY_VEHICLE,9,EDUCATION,Wanaka West,-44.70336241,169.11527951,Wanaka Waterfront,-44.67399475,169.13083654,3.4894396878718883,Queenstown-Lakes,Queenstown-Lakes
Pegasus Bay,Pegasus Bay,DRIVE_COMPANY_VEHICLE,9,EDUCATION,Pegasus Bay,-43.35501518,172.69010397,Pegasus Bay,-43.35501518,172.69010397,0.0,Waimakariri,Waimakariri
Cockle Bay,Pakuranga Heights East,DRIVE_COMPANY_VEHICLE,6,EDUCATION,Cockle Bay,-36.89765568,174.94328238,Pakuranga Heights East,-36.90862754,174.89903753,4.1189569921949145,Manukau,Manukau
Hospital Hill,Onekawa West,DRIVE_COMPANY_VEHICLE,30,EDUCATION,Hospital Hill,-39.48954321,176.90207674,Onekawa West,-39.49700088,176.88218064,1.8980038977378144,Napier,Hastings
Okauia,Matamata North,DRIVE_COMPANY_VEHICLE,12,EDUCATION,Okauia,-37.77286251,175.84579003,Matamata North,-37.8092195,175.78065623,7.007222736922389,Matamata-Piako,Matamata-Piako
Trents,Addington North,DRIVE_COMPANY_VEHICLE,6,EDUCATION,Trents,-43.59541921,172.46487554,Addington North,-43.54120365,172.61768966,13.708431942915913,Selwyn,Christchurch
Castor Bay,Mount Wellington North West,DRIVE_COMPANY_VEHICLE,6,EDUCATION,Castor Bay,-36.76039959,174.76178337,Mount Wellington North West,-36.89388294,174.82931818,16.013643125629674,Waitakere,Waitakere
Raetihi,Tangiwai,DRIVE_COMPANY_VEHICLE,6,EDUCATION,Raetihi,-39.42926305,175.27603962,Tangiwai,-39.36236325,175.16766499,11.918933928166703,Ruapehu,Ruapehu
Paraite,Waiwhakaiho-Bell Block South,DRIVE_COMPANY_VEHICLE,21,EDUCATION,Paraite,-39.05356228,174.16214176,Waiwhakaiho-Bell Block South,-39.03639644,174.16426596,1.9175492800711784,New Plymouth,New Plymouth
Bishopdale West,Christchurch Central-South,DRIVE_COMPANY_VEHICLE,6,EDUCATION,Bishopdale West,-43.48933117,172.57900137,Christchurch Central-South,-43.53815861,172.64240289,7.4577074401677415,Christchurch,Christchurch
Hoon Hay West,Bromley North,DRIVE_COMPANY_VEHICLE,6,EDUCATION,Hoon Hay West,-43.56060632,172.59043228,Bromley North,-43.53482145,172.70629272,9.76794387384051,Christchurch,Christchurch
Botany South,Penrose,DRIVE_COMPANY_VEHICLE,18,EDUCATION,Botany South,-36.9385812,174.91414624,Penrose,-36.91999811,174.82258914,8.396443699076467,Manukau,Waitakere
Pyes Pa North,Tauranga Central,DRIVE_COMPANY_VEHICLE,27,EDUCATION,Pyes Pa North,-37.74119093,176.12802796,Tauranga Central,-37.67947411,176.16704264,7.672946004429023,Western Bay of Plenty,
Shirley West,Bromley North,DRIVE_COMPANY_VEHICLE,9,EDUCATION,Shirley West,-43.49946804,172.65695807,Bromley North,-43.53482145,172.70629272,5.59276257390285,Christchurch,Christchurch
Belmont (Lower Hutt City),Hutt Central North,DRIVE_COMPANY_VEHICLE,12,EDUCATION,Belmont (Lower Hutt City),-41.1900686,174.92123901,Hutt Central North,-41.20872236,174.90664869,2.4067496610395014,Hutt city,Hutt city
Strowan,Russley,DRIVE_COMPANY_VEHICLE,6,EDUCATION,Strowan,-43.50761954,172.60874654,Russley,-43.49336565,172.55854726,4.348102685740126,Christchurch,Christchurch
Birkenhead West,North Harbour,DRIVE_COMPANY_VEHICLE,18,EDUCATION,Birkenhead West,-36.80638223,174.71287204,North Harbour,-36.74630474,174.71502975,6.683075732290868,Waitakere,Waitakere
Springlands,Yelverton,DRIVE_COMPANY_VEHICLE,12,EDUCATION,Springlands,-41.50422292,173.93617831,Yelverton,-41.51419128,173.93427609,1.1196911318636662,Marlborough,Marlborough
Papatoetoe West,Otahuhu Central,DRIVE_COMPANY_VEHICLE,6,EDUCATION,Papatoetoe West,-36.98008106,174.84650545,Otahuhu Central,-36.94175556,174.83604598,4.361752425724328,Manukau,Waitakere
Boulcott,Hutt Central North,DRIVE_COMPANY_VEHICLE,9,EDUCATION,Boulcott,-41.19937004,174.92439872,Hutt Central North,-41.20872236,174.90664869,1.812887248203068,Hutt city,Hutt city
Sovereign Palms,Woolston South,DRIVE_COMPANY_VEHICLE,6,EDUCATION,Sovereign Palms,-43.36711702,172.66837672,Woolston South,-43.56123026,172.68421207,21.622209325432657,Waimakariri,Christchurch
Waiorohi,Tauranga Hospital,DRIVE_COMPANY_VEHICLE,6,EDUCATION,Waiorohi,-37.87712037,176.14775568,Tauranga Hospital,-37.70320853,176.14700706,19.338226180247805,Western Bay of Plenty,Western Bay of Plenty
Richmond (Invercargill City),Newfield,DRIVE_COMPANY_VEHICLE,9,EDUCATION,Richmond (Invercargill City),-46.40719619,168.36918138,Newfield,-46.41755347,168.38907267,1.9109862143185328,Invercargill,Invercargill
Upper Clutha Valley,Wanaka Central,DRIVE_COMPANY_VEHICLE,24,EDUCATION,Upper Clutha Valley,-44.68728145,169.2943196,Wanaka Central,-44.70519427,169.14994952,11.583888454998819,Queenstown-Lakes,Queenstown-Lakes
Burnside,Christchurch Airport,DRIVE_COMPANY_VEHICLE,6,EDUCATION,Burnside,-43.50309147,172.5759413,Christchurch Airport,-43.48221523,172.54383636,3.477904606011633,Christchurch,Christchurch
Motueka North,Kaiteriteri-Riwaka,DRIVE_COMPANY_VEHICLE,9,EDUCATION,Motueka North,-41.1058919,173.01318855,Kaiteriteri-Riwaka,-41.08454704,173.00471432,2.4773977930250353,Tasman,Tasman
Heathcote Valley,Heathcote Valley,DRIVE_COMPANY_VEHICLE,12,EDUCATION,Heathcote Valley,-43.57763059,172.71241055,Heathcote Valley,-43.57763059,172.71241055,0.0,Christchurch,Christchurch
Westmorland,Islington-Hornby Industrial,DRIVE_COMPANY_VEHICLE,9,EDUCATION,Westmorland,-43.58478365,172.60947081,Islington-Hornby Industrial,-43.5526063,172.50828849,8.902511306871945,Christchurch,Christchurch
Methven,Methven,DRIVE_COMPANY_VEHICLE,54,EDUCATION,Methven,-43.63301935,171.64267984,Methven,-43.63301935,171.64267984,0.0,Ashburton,Ashburton
Mapara,Mountview,DRIVE_COMPANY_VEHICLE,9,EDUCATION,Mapara,-38.65445471,175.97695924,Mountview,-38.68673952,176.09245067,10.64975091940556,Taupo,Taupo
Te Atatu Peninsula East,East Tamaki,DRIVE_COMPANY_VEHICLE,6,EDUCATION,Te Atatu Peninsula East,-36.84345584,174.6562165,East Tamaki,-36.93823242,174.88712871,23.081703039483198,Waitakere,Manukau
New Brighton,Brookhaven-Ferrymead,DRIVE_COMPANY_VEHICLE,6,EDUCATION,New Brighton,-43.51368514,172.72951195,Brookhaven-Ferrymead,-43.56010436,172.70020341,5.676568852552665,Christchurch,Christchurch
Springvale West,Whanganui Central,DRIVE_COMPANY_VEHICLE,30,EDUCATION,Springvale West,-39.92948142,175.01753635,Whanganui Central,-39.93513676,175.04701799,2.591204704458203,Wanganui,Wanganui
Centennial Crescent,Gisborne Central,DRIVE_COMPANY_VEHICLE,12,EDUCATION,Centennial Crescent,-38.66282628,178.00942769999997,Gisborne Central,-38.66778237,178.02299313,1.3003316819445132,Gisborne,Gisborne
Waitohi (Marlborough District),Waikawa (Marlborough District),DRIVE_COMPANY_VEHICLE,6,EDUCATION,Waitohi (Marlborough District),-41.2943994,173.99961791,Waikawa (Marlborough District),-41.26901239,174.03367332,4.008325883869887,Marlborough,Marlborough
Hokowhitu South,Palmerston North Central,DRIVE_COMPANY_VEHICLE,15,EDUCATION,Hokowhitu South,-40.36620394,175.64166717,Palmerston North Central,-40.35537702,175.61010962,2.932354835398727,Palmerston North,Palmerston North
Redwoodtown East,Yelverton,DRIVE_COMPANY_VEHICLE,6,EDUCATION,Redwoodtown East,-41.52801744,173.95981668,Yelverton,-41.51419128,173.93427609,2.6239035950355625,Marlborough,Marlborough
Maungaraki,Petone East,DRIVE_COMPANY_VEHICLE,6,EDUCATION,Maungaraki,-41.20840978,174.87990307,Petone East,-41.2248184,174.89062655,2.0331059565477947,Hutt city,Hutt city
Westmere North,Penrose,DRIVE_COMPANY_VEHICLE,9,EDUCATION,Westmere North,-36.85441266,174.71863306,Penrose,-36.91999811,174.82258914,11.775489675257704,Waitakere,Waitakere
Highlands Park (New Plymouth District),New Plymouth Central,DRIVE_COMPANY_VEHICLE,48,EDUCATION,Highlands Park (New Plymouth District),-39.08069461,174.10443117,New Plymouth Central,-39.05700192,174.07537454,3.637728812171221,New Plymouth,New Plymouth
Ngaruawahia Central,Te Rapa South,DRIVE_COMPANY_VEHICLE,9,EDUCATION,Ngaruawahia Central,-37.66638305,175.14506504,Te Rapa South,-37.76141322,175.24114614,13.531033578658011,Waikato,Hamilton
Warkworth West,Warkworth East,DRIVE_COMPANY_VEHICLE,15,EDUCATION,Warkworth West,-36.38893228,174.65160073,Warkworth East,-36.40528692,174.66791942,2.332471957151504,Rodney,Rodney
Paraparaumu North,Paraparaumu Central,DRIVE_COMPANY_VEHICLE,33,EDUCATION,Paraparaumu North,-40.89457279999999,175.01141009,Paraparaumu Central,-40.90799495,174.99886348,1.8274082528396631,Kapiti Coast,Kapiti Coast
Kaiapoi Central,Kaiapoi Central,DRIVE_COMPANY_VEHICLE,12,EDUCATION,Kaiapoi Central,-43.38654697,172.65446965,Kaiapoi Central,-43.38654697,172.65446965,0.0,Waimakariri,Waimakariri
Kensington (Whangarei District),Kensington (Whangarei District),DRIVE_COMPANY_VEHICLE,15,EDUCATION,Kensington (Whangarei District),-35.71310137,174.30833235,Kensington (Whangarei District),-35.71310137,174.30833235,0.0,Whangarei,Whangarei
Te Awamutu West,Te Awamutu West,DRIVE_COMPANY_VEHICLE,6,EDUCATION,Te Awamutu West,-38.00845928,175.30468954,Te Awamutu West,-38.00845928,175.30468954,0.0,Waipa,Waipa
Waitakere,Penrose,DRIVE_COMPANY_VEHICLE,6,EDUCATION,Waitakere,-36.85697982,174.54072919,Penrose,-36.91999811,174.82258914,26.028004503330518,Waitakere,Waitakere
Redwoodtown West,Awatere,DRIVE_COMPANY_VEHICLE,6,EDUCATION,Redwoodtown West,-41.5299556,173.94858091,Awatere,-42.09611412,173.2944504,83.07849192620506,Marlborough,Marlborough
Kohimarama,East Tamaki,DRIVE_COMPANY_VEHICLE,9,EDUCATION,Kohimarama,-36.85773003,174.84092129,East Tamaki,-36.93823242,174.88712871,9.849454145064682,Waitakere,Manukau
Tahuna Hills,Richmond Central (Tasman District),DRIVE_COMPANY_VEHICLE,6,EDUCATION,Tahuna Hills,-41.29106093,173.25332264,Richmond Central (Tasman District),-41.33750365,173.18938637,7.428525868546207,Nelson,Tasman
Maitai,Nelson Central-Trafalgar,DRIVE_COMPANY_VEHICLE,18,EDUCATION,Maitai,-41.27666765,173.2982542,Nelson Central-Trafalgar,-41.27273863,173.28210878,1.418227917361478,Nelson,Nelson
Travis Wetlands,Travis Wetlands,DRIVE_COMPANY_VEHICLE,12,EDUCATION,Travis Wetlands,-43.48560388,172.68870014,Travis Wetlands,-43.48560388,172.68870014,0.0,Christchurch,Christchurch
Silverdale Central (Auckland),Silverdale Central (Auckland),DRIVE_COMPANY_VEHICLE,9,EDUCATION,Silverdale Central (Auckland),-36.62402013,174.67493059999995,Silverdale Central (Auckland),-36.62402013,174.67493059999995,0.0,Rodney,Rodney
Mangere Bridge Ambury,Onehunga-Te Papapa Industrial,DRIVE_COMPANY_VEHICLE,9,EDUCATION,Mangere Bridge Ambury,-36.94780505,174.76875626,Onehunga-Te Papapa Industrial,-36.92606886,174.79489131,3.352191566474942,Manukau,Waitakere
Newmarket,Newmarket,DRIVE_COMPANY_VEHICLE,9,EDUCATION,Newmarket,-36.86853889,174.77706299,Newmarket,-36.86853889,174.77706299,0.0,Waitakere,Waitakere
Atawhai,Richmond West (Tasman District),DRIVE_COMPANY_VEHICLE,6,EDUCATION,Atawhai,-41.24786852,173.31976671,Richmond West (Tasman District),-41.33020686,173.16950532,15.538321521452438,Nelson,Tasman
Pyes Pa North,Tauriko,DRIVE_COMPANY_VEHICLE,15,EDUCATION,Pyes Pa North,-37.74119093,176.12802796,Tauriko,-37.75604256,176.09165915,3.5988948454755607,Western Bay of Plenty,Western Bay of Plenty
Lake Hawea,Upper Clutha Valley,DRIVE_COMPANY_VEHICLE,9,EDUCATION,Lake Hawea,-44.61387879,169.26678425,Upper Clutha Valley,-44.68728145,169.2943196,8.447647553488261,Queenstown-Lakes,Queenstown-Lakes
Kiwitea,Feilding Central,DRIVE_COMPANY_VEHICLE,12,EDUCATION,Kiwitea,-40.00817686,175.69603871,Feilding Central,-40.23865803,175.58114321,27.42711906695839,Manawatu,Manawatu
Parkhaven,Onekawa West,DRIVE_COMPANY_VEHICLE,6,EDUCATION,Parkhaven,-39.65455823,176.84825769,Onekawa West,-39.49700088,176.88218064,17.75918898596982,Hastings city,Hastings
Woodbourne,Blenheim Central,DRIVE_COMPANY_VEHICLE,27,EDUCATION,Woodbourne,-41.5308031,173.90363794,Blenheim Central,-41.51522392,173.96254647,5.2011313284133,Marlborough,Marlborough
Te Atatu Peninsula North West,North Harbour,DRIVE_COMPANY_VEHICLE,9,EDUCATION,Te Atatu Peninsula North West,-36.82655522,174.64883254,North Harbour,-36.74630474,174.71502975,10.694841785159026,Waitakere,Waitakere
Northcote (Christchurch City),Middleton,DRIVE_COMPANY_VEHICLE,15,EDUCATION,Northcote (Christchurch City),-43.48988035,172.61871397,Middleton,-43.54208461,172.58331091,6.468852272738728,Christchurch,Christchurch
South Head,Henderson Central,DRIVE_COMPANY_VEHICLE,9,EDUCATION,South Head,-36.59353204,174.31227374,Henderson Central,-36.88968581,174.62928426,43.38593422873385,Rodney,Waitakere
Algies Bay-Scotts Landing,North Harbour,DRIVE_COMPANY_VEHICLE,6,EDUCATION,Algies Bay-Scotts Landing,-36.45696537,174.74610372,North Harbour,-36.74630474,174.71502975,32.292427288972554,Rodney,Waitakere
Silverdale South (Auckland),North Harbour,DRIVE_COMPANY_VEHICLE,33,EDUCATION,Silverdale South (Auckland),-36.62799753,174.69160348,North Harbour,-36.74630474,174.71502975,13.319973416850086,Rodney,Waitakere
Enner Glynn,Nelson Airport,DRIVE_COMPANY_VEHICLE,21,EDUCATION,Enner Glynn,-41.31495427,173.26437329,Nelson Airport,-41.2956675,173.22975091,3.60041224459692,Nelson,Nelson
Winton,Ohai-Nightcaps,DRIVE_COMPANY_VEHICLE,6,EDUCATION,Winton,-46.14486071,168.32382512,Ohai-Nightcaps,-45.89093509,168.02614043,36.408820303018906,Southland,Southland
Whitby,Whitby,DRIVE_COMPANY_VEHICLE,15,EDUCATION,Whitby,-41.11717134,174.89107268,Whitby,-41.11717134,174.89107268,0.0,Porirua,Porirua
St Clair,Hillside-Portsmouth Drive,DRIVE_COMPANY_VEHICLE,27,EDUCATION,St Clair,-45.9148609,170.47562075,Hillside-Portsmouth Drive,-45.89228448,170.50432869999997,3.3520669481533893,Dunedin,Dunedin
Puketitiri-Tutira,Puketitiri-Tutira,DRIVE_COMPANY_VEHICLE,21,EDUCATION,Puketitiri-Tutira,-39.19745874,176.64300698,Puketitiri-Tutira,-39.19745874,176.64300698,0.0,Hastings,Hastings
Kerikeri South,Waipapa,DRIVE_COMPANY_VEHICLE,15,EDUCATION,Kerikeri South,-35.24639884,173.9577874,Waipapa,-35.2099338,173.91841396,5.4065607217046985,Far North,Far North
Papamoa Beach North,Papamoa Beach North,DRIVE_COMPANY_VEHICLE,6,EDUCATION,Papamoa Beach North,-37.702805700000006,176.29535171,Papamoa Beach North,-37.702805700000006,176.29535171,0.0,Western Bay of Plenty,Western Bay of Plenty
Massey South,Mount Wellington Industrial,DRIVE_COMPANY_VEHICLE,9,EDUCATION,Massey South,-36.84994988,174.61625895,Mount Wellington Industrial,-36.92046064,174.85162182,22.35288079750288,Waitakere,Waitakere
Oamaru North Orana Park,Oamaru North Orana Park,DRIVE_COMPANY_VEHICLE,15,EDUCATION,Oamaru North Orana Park,-45.08058565,170.97765366,Oamaru North Orana Park,-45.08058565,170.97765366,0.0,Waitaki,Waitaki
Eiffelton,Eiffelton,DRIVE_COMPANY_VEHICLE,51,EDUCATION,Eiffelton,-43.95897704,171.66500519,Eiffelton,-43.95897704,171.66500519,0.0,Ashburton,Ashburton
Rosehill,Papakura Industrial,DRIVE_COMPANY_VEHICLE,12,EDUCATION,Rosehill,-37.0807433,174.93811005,Papakura Industrial,-37.07325298,174.96429562,2.467828260093805,Franklin,Franklin
Oneroa East-Palm Beach,Ostend,DRIVE_COMPANY_VEHICLE,9,EDUCATION,Oneroa East-Palm Beach,-36.77927556,175.05218612,Ostend,-36.79263832,175.05220466,1.4858720352683183,Auckland,Auckland
Redwood East,Hornby Central,DRIVE_COMPANY_VEHICLE,9,EDUCATION,Redwood East,-43.47970507,172.62290932,Hornby Central,-43.53921804,172.53566342,9.659023200150452,Christchurch,Christchurch
Saddle Hill-Chain Hills,Saddle Hill-Chain Hills,DRIVE_COMPANY_VEHICLE,12,EDUCATION,Saddle Hill-Chain Hills,-45.91291031,170.38272517,Saddle Hill-Chain Hills,-45.91291031,170.38272517,0.0,Dunedin,Dunedin
Chertsey,Rakaia,DRIVE_COMPANY_VEHICLE,6,EDUCATION,Chertsey,-43.82506248,171.96646486,Rakaia,-43.74700637,172.00903425,9.327932952738434,Ashburton,Ashburton
Te Puke East,Otawa,DRIVE_COMPANY_VEHICLE,9,EDUCATION,Te Puke East,-37.7898618,176.32555033,Otawa,-37.80633865,176.27291154,4.974698495738721,Western Bay of Plenty,Western Bay of Plenty
Hornby South,Middleton,DRIVE_COMPANY_VEHICLE,15,EDUCATION,Hornby South,-43.54829435,172.53309133,Middleton,-43.54208461,172.58331091,4.106049787292928,Christchurch,Christchurch
Te Atatu Peninsula North West,Te Atatu Peninsula North West,DRIVE_COMPANY_VEHICLE,6,EDUCATION,Te Atatu Peninsula North West,-36.82655522,174.64883254,Te Atatu Peninsula North West,-36.82655522,174.64883254,0.0,Waitakere,Waitakere
Forrest Hill West,Takapuna Central,DRIVE_COMPANY_VEHICLE,9,EDUCATION,Forrest Hill West,-36.76895837,174.7451352,Takapuna Central,-36.78202515,174.76947038,2.6093771280790423,Waitakere,Waitakere
Levels,Timaru East,DRIVE_COMPANY_VEHICLE,9,EDUCATION,Levels,-44.29433296,171.25526363,Timaru East,-44.41420462,171.2609405,13.336760221546236,Timaru,Timaru
Kainui-Gordonton,Kainui-Gordonton,DRIVE_COMPANY_VEHICLE,12,EDUCATION,Kainui-Gordonton,-37.65939637,175.27496356,Kainui-Gordonton,-37.65939637,175.27496356,0.0,Waikato,Waikato
Twyford,Omahu Strip,DRIVE_COMPANY_VEHICLE,9,EDUCATION,Twyford,-39.59961385,176.81874894,Omahu Strip,-39.61309296,176.78725679,3.086283937757744,Hastings city,Hastings city
Donovan Park,Prestonville-Grasmere,DRIVE_COMPANY_VEHICLE,21,EDUCATION,Donovan Park,-46.37529256,168.35657113,Prestonville-Grasmere,-46.38023874,168.34165711,1.2694357272422248,Invercargill,Invercargill
Ben McLeod,Ben McLeod,DRIVE_COMPANY_VEHICLE,6,EDUCATION,Ben McLeod,-43.68469309,170.89087582,Ben McLeod,-43.68469309,170.89087582,0.0,Timaru,Timaru
Ardmore,Penrose,DRIVE_COMPANY_VEHICLE,9,EDUCATION,Ardmore,-37.06183843,175.01147993,Penrose,-36.91999811,174.82258914,23.026016067105484,Franklin,Waitakere
Papatoetoe East,Mount Wellington Industrial,DRIVE_COMPANY_VEHICLE,6,EDUCATION,Papatoetoe East,-36.97237736,174.87353637,Mount Wellington Industrial,-36.92046064,174.85162182,6.092516233485968,Manukau,Waitakere
Flagstaff South,Te Rapa North,DRIVE_COMPANY_VEHICLE,30,EDUCATION,Flagstaff South,-37.729433,175.23989195,Te Rapa North,-37.73226423,175.22072362,1.7148734951054416,Hamilton,Hamilton
Oratia,East Tamaki,DRIVE_COMPANY_VEHICLE,6,EDUCATION,Oratia,-36.94487953,174.61183121,East Tamaki,-36.93823242,174.88712871,24.477511312816056,Waitakere,Manukau
Hillpark South,Mount Wellington Industrial,DRIVE_COMPANY_VEHICLE,9,EDUCATION,Hillpark South,-37.01717082,174.90042465,Mount Wellington Industrial,-36.92046064,174.85162182,11.59481432089949,Franklin,Waitakere
New Windsor South,New Windsor South,DRIVE_COMPANY_VEHICLE,15,EDUCATION,New Windsor South,-36.90852211,174.71637156,New Windsor South,-36.90852211,174.71637156,0.0,Waitakere,Waitakere
Arataki North,Mount Maunganui North,DRIVE_COMPANY_VEHICLE,6,EDUCATION,Arataki North,-37.67104486,176.21679849,Mount Maunganui North,-37.63000366,176.1731587,5.965492262354668,Western Bay of Plenty,
Titahi Bay South,Porirua Central,DRIVE_COMPANY_VEHICLE,24,EDUCATION,Titahi Bay South,-41.11339531,174.82698818,Porirua Central,-41.14584359,174.82583047,3.6093867774322015,Porirua,Porirua
Caversham,Caversham,DRIVE_COMPANY_VEHICLE,6,EDUCATION,Caversham,-45.89677117,170.4820345,Caversham,-45.89677117,170.4820345,0.0,Dunedin,Dunedin
Johnsonville Central,Pipitea-Kaiwharawhara,DRIVE_COMPANY_VEHICLE,6,EDUCATION,Johnsonville Central,-41.22372125,174.80743127,Pipitea-Kaiwharawhara,-41.27624822,174.78772639,6.0685992800038875,Wellington,Wellington
Whalers Gate,Westown ,DRIVE_COMPANY_VEHICLE,9,EDUCATION,Whalers Gate,-39.08580042,174.03707356,Westown,-39.0747742,174.06011109,2.336115201421437,New Plymouth,New Plymouth
Parkside,Timaru Central,DRIVE_COMPANY_VEHICLE,30,EDUCATION,Parkside,-44.40469035,171.24632921,Timaru Central,-44.39838399,171.2514175,0.8094038756755203,Timaru,Timaru
Jacks Point,Jacks Point,DRIVE_COMPANY_VEHICLE,6,EDUCATION,Jacks Point,-45.07182625,168.73715616,Jacks Point,-45.07182625,168.73715616,0.0,Queenstown-Lakes,Queenstown-Lakes
Ruamahanga,Tremaine,DRIVE_COMPANY_VEHICLE,36,EDUCATION,Ruamahanga,-40.34920538,175.64194858,Tremaine,-40.33969042,175.59865691,3.818431858092056,Palmerston North,Palmerston North
New Lynn Seabrook,Mount Wellington Industrial,DRIVE_COMPANY_VEHICLE,6,EDUCATION,New Lynn Seabrook,-36.91793217,174.6718063,Mount Wellington Industrial,-36.92046064,174.85162182,15.987800543569074,Waitakere,Waitakere
Gleniti South,Washdyke,DRIVE_COMPANY_VEHICLE,51,EDUCATION,Gleniti South,-44.3836929,171.19636587,Washdyke,-44.35333362,171.24781336,5.302817991785377,Timaru,Timaru
Mount Eden West,Penrose,DRIVE_COMPANY_VEHICLE,12,EDUCATION,Mount Eden West,-36.88382084,174.75357383,Penrose,-36.91999811,174.82258914,7.337712358815894,Waitakere,Waitakere
Miramar South,Miramar South,DRIVE_COMPANY_VEHICLE,12,EDUCATION,Miramar South,-41.32072604,174.81420546,Miramar South,-41.32072604,174.81420546,0.0,Wellington,Wellington
Waipukurau West,Makaretu,DRIVE_COMPANY_VEHICLE,6,EDUCATION,Waipukurau West,-39.99738364,176.54048302,Makaretu,-39.94160872,176.31273142,20.375401871315372,Central Hawke's Bay,Central Hawke's Bay
Pegasus,Pegasus,DRIVE_COMPANY_VEHICLE,12,EDUCATION,Pegasus,-43.31136296,172.6965139,Pegasus,-43.31136296,172.6965139,0.0,Waimakariri,Waimakariri
Kelson,Pipitea-Kaiwharawhara,DRIVE_COMPANY_VEHICLE,9,EDUCATION,Kelson,-41.17271184,174.94294237,Pipitea-Kaiwharawhara,-41.27624822,174.78772639,17.350942438625435,Hutt city,Wellington
Yelverton,Lower Wairau ,DRIVE_COMPANY_VEHICLE,9,EDUCATION,Yelverton,-41.51419128,173.93427609,Lower Wairau,-41.48548663,174.00600752,6.773042702526635,Marlborough,Marlborough
Epuni West,Alicetown-Melling,DRIVE_COMPANY_VEHICLE,6,EDUCATION,Epuni West,-41.20573675,174.92732065,Alicetown-Melling,-41.21402786,174.89365185,2.9635166267170687,Hutt city,Hutt city
Silverstream (Upper Hutt City),Clouston Park,DRIVE_COMPANY_VEHICLE,9,EDUCATION,Silverstream (Upper Hutt City),-41.15226988,175.00981756,Clouston Park,-41.11739699,175.08712646,7.546862814392655,Upper Hutt,Upper Hutt
Grove Bush,Grove Bush,DRIVE_COMPANY_VEHICLE,21,EDUCATION,Grove Bush,-46.30068372,168.47812714,Grove Bush,-46.30068372,168.47812714,0.0,Southland,Southland
Waima-Woodlands Park,Onehunga-Te Papapa Industrial,DRIVE_COMPANY_VEHICLE,6,EDUCATION,Waima-Woodlands Park,-36.94665584,174.63541623,Onehunga-Te Papapa Industrial,-36.92606886,174.79489131,14.35756908934318,Waitakere,Waitakere
West Plains-Makarewa,Invercargill Central,DRIVE_COMPANY_VEHICLE,48,EDUCATION,West Plains-Makarewa,-46.4816177,168.27903935,Invercargill Central,-46.41489239,168.32850731,8.331444808227769,Invercargill,Invercargill
Leamington East,Te Rapa South,DRIVE_COMPANY_VEHICLE,9,EDUCATION,Leamington East,-37.902915,175.48298816,Te Rapa South,-37.76141322,175.24114614,26.43243719228088,Waipa,Hamilton
Miramar East,Kilbirnie Central,DRIVE_COMPANY_VEHICLE,6,EDUCATION,Miramar East,-41.31890777,174.82187288,Kilbirnie Central,-41.31694317,174.79267899,2.447859732178828,Wellington,Wellington
Gleniti South,Gleniti South,DRIVE_COMPANY_VEHICLE,6,EDUCATION,Gleniti South,-44.3836929,171.19636587,Gleniti South,-44.3836929,171.19636587,0.0,Timaru,Timaru
Oxford,Starvation Hill-Cust,DRIVE_COMPANY_VEHICLE,6,EDUCATION,Oxford,-43.2987357,172.18309394,Starvation Hill-Cust,-43.29262485,172.36275322,14.555761182809222,Waimakariri,Waimakariri
Warkworth East,North Harbour,DRIVE_COMPANY_VEHICLE,12,EDUCATION,Warkworth East,-36.40528692,174.66791942,North Harbour,-36.74630474,174.71502975,38.152090536976644,Rodney,Waitakere
Westport Rural,Westport Rural,DRIVE_COMPANY_VEHICLE,6,EDUCATION,Westport Rural,-41.78172508,171.64675725,Westport Rural,-41.78172508,171.64675725,0.0,Buller,Buller
Woolston East,Brookhaven-Ferrymead,DRIVE_COMPANY_VEHICLE,6,EDUCATION,Woolston East,-43.54874136,172.68689845,Brookhaven-Ferrymead,-43.56010436,172.70020341,1.6571145715207505,Christchurch,Christchurch
Newtons Road,Hornby Central,DRIVE_COMPANY_VEHICLE,6,EDUCATION,Newtons Road,-43.56941172,172.31944743,Hornby Central,-43.53921804,172.53566342,17.744354221425546,Selwyn,Christchurch
Lake Ngaroto,Frankton Junction ,DRIVE_COMPANY_VEHICLE,15,EDUCATION,Lake Ngaroto,-37.93011525,175.24270782,Frankton Junction,-37.79650916,175.26255885,14.95817553226282,Waipa,Hamilton
Goodfellow Park,Otorohanga,DRIVE_COMPANY_VEHICLE,6,EDUCATION,Goodfellow Park,-38.00680748,175.31677998,Otorohanga,-38.18318495,175.21677363,21.476257161513796,Waipa,Otorohanga
Awapuni South ,Palmerston North Central,DRIVE_COMPANY_VEHICLE,42,EDUCATION,Awapuni South,-40.37784493,175.59343472,Palmerston North Central,-40.35537702,175.61010962,2.8700802472184734,Palmerston North,Palmerston North
Wigram West,Sockburn South,DRIVE_COMPANY_VEHICLE,6,EDUCATION,Wigram West,-43.55347306,172.54834148,Sockburn South,-43.5449149,172.56350496,1.5488752432886423,Christchurch,Christchurch
Feilding Central,Feilding Central,DRIVE_COMPANY_VEHICLE,12,EDUCATION,Feilding Central,-40.23865803,175.58114321,Feilding Central,-40.23865803,175.58114321,0.0,Manawatu,Manawatu
Waipaoa,Waipaoa,DRIVE_COMPANY_VEHICLE,21,EDUCATION,Waipaoa,-38.34127548,177.70733968,Waipaoa,-38.34127548,177.70733968,0.0,Gisborne,Gisborne
Paraparaumu North,Paraparaumu East,DRIVE_COMPANY_VEHICLE,6,EDUCATION,Paraparaumu North,-40.89457279999999,175.01141009,Paraparaumu East,-40.91934665,175.01186633,2.754993248891921,Kapiti Coast,Kapiti Coast
Windsor ,Prestonville-Grasmere,DRIVE_COMPANY_VEHICLE,15,EDUCATION,Windsor,-46.39716606,168.37568613,Prestonville-Grasmere,-46.38023874,168.34165711,3.2178703461118867,Invercargill,Invercargill
Hilltop (Auckland),East Tamaki,DRIVE_COMPANY_VEHICLE,9,EDUCATION,Hilltop (Auckland),-36.98571899,174.9077134,East Tamaki,-36.93823242,174.88712871,5.588036972665144,Manukau,Manukau
Petone Esplanade,Petone Central,DRIVE_COMPANY_VEHICLE,15,EDUCATION,Petone Esplanade,-41.22967597,174.88725425,Petone Central,-41.22362356,174.86969444,1.6154039282075172,Hutt city,Hutt city
Mangapapa East,Makaraka-Awapuni,DRIVE_COMPANY_VEHICLE,18,EDUCATION,Mangapapa East,-38.64354706,178.02146282,Makaraka-Awapuni,-38.65787303,177.97255068,4.536402654253688,Gisborne,Gisborne
Tamahere South,Kirikiriroa,DRIVE_COMPANY_VEHICLE,6,EDUCATION,Tamahere South,-37.84740377,175.38978183,Kirikiriroa,-37.7819599,175.27469286,12.456488125997033,Waikato,Hamilton
Kaimai,Tauranga Hospital,DRIVE_COMPANY_VEHICLE,9,EDUCATION,Kaimai,-37.88590858,176.02098429,Tauranga Hospital,-37.70320853,176.14700706,23.137210777118774,Western Bay of Plenty,Western Bay of Plenty
Normandale,Petone Central,DRIVE_COMPANY_VEHICLE,12,EDUCATION,Normandale,-41.20345009,174.89320848,Petone Central,-41.22362356,174.86969444,2.983377443848433,Hutt city,Hutt city
Papakura Central,Papakura Industrial,DRIVE_COMPANY_VEHICLE,6,EDUCATION,Papakura Central,-37.06542305,174.94281885,Papakura Industrial,-37.07325298,174.96429562,2.09497250186603,Franklin,Franklin
Tui Ridge,Mangakakahi Central,DRIVE_COMPANY_VEHICLE,33,EDUCATION,Tui Ridge,-38.01697507,176.12931898,Mangakakahi Central,-38.12824758,176.23058754,15.220755636788118,Rotorua,Rotorua
Ravensbourne-St Leonards,Hillside-Portsmouth Drive,DRIVE_COMPANY_VEHICLE,9,EDUCATION,Ravensbourne-St Leonards,-45.85250406,170.56534806,Hillside-Portsmouth Drive,-45.89228448,170.50432869999997,6.471772897263357,Dunedin,Dunedin
Fairose,Richmond Central (Tasman District),DRIVE_COMPANY_VEHICLE,9,EDUCATION,Fairose,-41.35339405,173.18085402,Richmond Central (Tasman District),-41.33750365,173.18938637,1.9050915522396692,Tasman,Tasman
Fairose,Fairose,DRIVE_COMPANY_VEHICLE,9,EDUCATION,Fairose,-41.35339405,173.18085402,Fairose,-41.35339405,173.18085402,0.0,Tasman,Tasman
West Eyreton,Christchurch Central-South,DRIVE_COMPANY_VEHICLE,6,EDUCATION,West Eyreton,-43.3561292,172.43471785,Christchurch Central-South,-43.53815861,172.64240289,26.28286831248318,Waimakariri,Christchurch
Kaiwaka,Maungaturoto,DRIVE_COMPANY_VEHICLE,6,EDUCATION,Kaiwaka,-36.20144738,174.41954369,Maungaturoto,-36.10952458,174.34693916,12.122985640016177,Kaipara,Kaipara
Parua Bay,Whangarei Central,DRIVE_COMPANY_VEHICLE,45,EDUCATION,Parua Bay,-35.76001844,174.42812257,Whangarei Central,-35.72846995,174.32430322,10.0048181178566,Whangarei,Whangarei
Sunnynook South,Wairau Valley ,DRIVE_COMPANY_VEHICLE,9,EDUCATION,Sunnynook South,-36.75526458,174.73587597,Wairau Valley,-36.77355541,174.73453173,2.0373693948732208,Waitakere,Waitakere
Rototuna Central,Te Rapa North,DRIVE_COMPANY_VEHICLE,42,EDUCATION,Rototuna Central,-37.72662295,175.26539165,Te Rapa North,-37.73226423,175.22072362,3.978101115701026,Hamilton,Hamilton
Sockburn North,Hornby Central,DRIVE_COMPANY_VEHICLE,12,EDUCATION,Sockburn North,-43.5324799,172.55741654,Hornby Central,-43.53921804,172.53566342,1.9068831172696945,Christchurch,Christchurch
Kaipara Coastal,Dargaville,DRIVE_COMPANY_VEHICLE,63,EDUCATION,Kaipara Coastal,-35.72900181,173.65124289,Dargaville,-35.93920158,173.86524045,30.306079078311228,Kaipara,Kaipara
Beach Haven West,North Harbour,DRIVE_COMPANY_VEHICLE,21,EDUCATION,Beach Haven West,-36.79327636,174.68619139,North Harbour,-36.74630474,174.71502975,5.82048233798215,Waitakere,Waitakere
Queens Square,Onekawa West,DRIVE_COMPANY_VEHICLE,6,EDUCATION,Queens Square,-39.64447191,176.85383704,Onekawa West,-39.49700088,176.88218064,16.577017090521277,Hastings city,Hastings
Tamatea West,Tamatea West,DRIVE_COMPANY_VEHICLE,6,EDUCATION,Tamatea West,-39.51290647,176.86337195,Tamatea West,-39.51290647,176.86337195,0.0,Hastings,Hastings
Henderson Lincoln West,Rosebank Peninsula,DRIVE_COMPANY_VEHICLE,6,EDUCATION,Henderson Lincoln West,-36.85979867,174.62411351,Rosebank Peninsula,-36.88086056,174.67580445,5.160251985593878,Waitakere,Waitakere
Ben Cooper Park,Saxton,DRIVE_COMPANY_VEHICLE,9,EDUCATION,Ben Cooper Park,-41.34508297,173.17589231,Saxton,-41.33372364,173.22163245,4.0221498384496925,Tasman,Nelson
Chedworth,Te Rapa North,DRIVE_COMPANY_VEHICLE,12,EDUCATION,Chedworth,-37.75074523,175.28495138,Te Rapa North,-37.73226423,175.22072362,6.009853163186297,Hamilton,Hamilton
Mangaoraka,Inglewood,DRIVE_COMPANY_VEHICLE,12,EDUCATION,Mangaoraka,-39.13469225,174.16388593,Inglewood,-39.15653753,174.20152057,4.053838176514783,New Plymouth,New Plymouth
Hillcrest (Rotorua District),Mangakakahi Central,DRIVE_COMPANY_VEHICLE,27,EDUCATION,Hillcrest (Rotorua District),-38.14990065,176.23465785,Mangakakahi Central,-38.12824758,176.23058754,2.433884278705797,Rotorua,Rotorua
Hakataramea,Hakataramea,DRIVE_COMPANY_VEHICLE,18,EDUCATION,Hakataramea,-44.5949764,170.59314374,Hakataramea,-44.5949764,170.59314374,0.0,Waimate,Waimate
Lansdowne East,Lansdowne East,DRIVE_COMPANY_VEHICLE,6,EDUCATION,Lansdowne East,-40.94138749,175.68119066,Lansdowne East,-40.94138749,175.68119066,0.0,Masterton,Masterton
Ngaruawahia Central,Te Rapa North,DRIVE_COMPANY_VEHICLE,12,EDUCATION,Ngaruawahia Central,-37.66638305,175.14506504,Te Rapa North,-37.73226423,175.22072362,9.898194046410849,Waikato,Hamilton
Andersons Bay,Hillside-Portsmouth Drive,DRIVE_COMPANY_VEHICLE,27,EDUCATION,Andersons Bay,-45.8982685,170.53683509,Hillside-Portsmouth Drive,-45.89228448,170.50432869999997,2.602134533479128,Dunedin,Dunedin
Kohimarama,Onehunga-Te Papapa Industrial,DRIVE_COMPANY_VEHICLE,9,EDUCATION,Kohimarama,-36.85773003,174.84092129,Onehunga-Te Papapa Industrial,-36.92606886,174.79489131,8.631348067933919,Waitakere,Waitakere
Paraparaumu Beach East,Paraparaumu East,DRIVE_COMPANY_VEHICLE,6,EDUCATION,Paraparaumu Beach East,-40.89483919,174.99338163,Paraparaumu East,-40.91934665,175.01186633,3.1367669154775184,Kapiti Coast,Kapiti Coast
Postgate,Wellington Central,DRIVE_COMPANY_VEHICLE,9,EDUCATION,Postgate,-41.11331454,174.88235004,Wellington Central,-41.2849345,174.77572593,21.0654109896476,Porirua,Wellington
Bayview South,Bayview South,DRIVE_COMPANY_VEHICLE,6,EDUCATION,Bayview South,-36.78197477,174.70359001,Bayview South,-36.78197477,174.70359001,0.0,Waitakere,Waitakere
Sunshine Bay-Fernhill,Sunshine Bay-Fernhill,DRIVE_COMPANY_VEHICLE,18,EDUCATION,Sunshine Bay-Fernhill,-45.04130323,168.63106873,Sunshine Bay-Fernhill,-45.04130323,168.63106873,0.0,Queenstown-Lakes,Queenstown-Lakes
Poukawa,Twyford,DRIVE_COMPANY_VEHICLE,6,EDUCATION,Poukawa,-39.75996379,176.70227115,Twyford,-39.59961385,176.81874894,20.42725816859414,Hastings,Hastings city
Makikihi-Willowbridge,Waimate East,DRIVE_COMPANY_VEHICLE,15,EDUCATION,Makikihi-Willowbridge,-44.68813769,171.05113933,Waimate East,-44.73770602,171.04734729,5.519885914108476,Waimate,Waimate
Ngaruawahia South,Frankton Junction ,DRIVE_COMPANY_VEHICLE,9,EDUCATION,Ngaruawahia South,-37.68072142,175.14339886,Frankton Junction,-37.79650916,175.26255885,16.59997617343465,Waikato,Hamilton
Huntly Rural,Te Rapa North,DRIVE_COMPANY_VEHICLE,6,EDUCATION,Huntly Rural,-37.53043725,175.19128309,Te Rapa North,-37.73226423,175.22072362,22.591390149835266,Waikato,Hamilton
Shirley East,Lancaster Park,DRIVE_COMPANY_VEHICLE,6,EDUCATION,Shirley East,-43.49842561,172.66725305,Lancaster Park,-43.5413884,172.6534567,4.90505222072133,Christchurch,Christchurch
Oratia,Newmarket,DRIVE_COMPANY_VEHICLE,6,EDUCATION,Oratia,-36.94487953,174.61183121,Newmarket,-36.86853889,174.77706299,16.96734969429301,Waitakere,Waitakere
Rotoiti-Rotoehu,Holdens Bay-Rotokawa,DRIVE_COMPANY_VEHICLE,6,EDUCATION,Rotoiti-Rotoehu,-38.05706156,176.45805764,Holdens Bay-Rotokawa,-38.11483901,176.32505172,13.295875508105786,Rotorua,Rotorua
Balclutha North,Milton,DRIVE_COMPANY_VEHICLE,6,EDUCATION,Balclutha North,-46.23245645,169.75291719999996,Milton,-46.12167234,169.96750182,20.60879032905117,Clutha,Clutha
Glen Innes West,Parnell West,DRIVE_COMPANY_VEHICLE,6,EDUCATION,Glen Innes West,-36.873161,174.85691995,Parnell West,-36.85679261,174.77798053,7.254609734474862,Waitakere,Waitakere
Pukekawa,Pukekohe Central,DRIVE_COMPANY_VEHICLE,9,EDUCATION,Pukekawa,-37.35591115,175.00526866,Pukekohe Central,-37.20891954,174.91332549999996,18.257056928056237,Franklin,Franklin
Eiffelton,Allenton South,DRIVE_COMPANY_VEHICLE,12,EDUCATION,Eiffelton,-43.95897704,171.66500519,Allenton South,-43.89054116,171.73232663,9.326192149892652,Ashburton,Ashburton
Solway North,Solway North,DRIVE_COMPANY_VEHICLE,12,EDUCATION,Solway North,-40.9574562,175.63029837,Solway North,-40.9574562,175.63029837,0.0,Masterton,Masterton
Gate Pa,Mount Maunganui Central,DRIVE_COMPANY_VEHICLE,24,EDUCATION,Gate Pa,-37.71588753,176.13556748,Mount Maunganui Central,-37.66423891,176.19448097,7.736644363390287,Western Bay of Plenty,Western Bay of Plenty
Horotiu,Te Rapa South,DRIVE_COMPANY_VEHICLE,6,EDUCATION,Horotiu,-37.70262644,175.20250653,Te Rapa South,-37.76141322,175.24114614,7.367248935914062,Waikato,Hamilton
Kaipaki,Hamilton Central,DRIVE_COMPANY_VEHICLE,9,EDUCATION,Kaipaki,-37.88426455,175.35405891,Hamilton Central,-37.78938082,175.28203067,12.301412652207244,Waipa,Hamilton
Frimley,Omahu Strip,DRIVE_COMPANY_VEHICLE,39,EDUCATION,Frimley,-39.62166848,176.82925988,Omahu Strip,-39.61309296,176.78725679,3.7220219204651612,Hastings city,Hastings city
Oakura,Oakura,DRIVE_COMPANY_VEHICLE,12,EDUCATION,Oakura,-39.11694914,173.95066015,Oakura,-39.11694914,173.95066015,0.0,New Plymouth,New Plymouth
Strowan,Sockburn South,DRIVE_COMPANY_VEHICLE,6,EDUCATION,Strowan,-43.50761954,172.60874654,Sockburn South,-43.5449149,172.56350496,5.5228937656300126,Christchurch,Christchurch
Churton Park South,Vivian East,DRIVE_COMPANY_VEHICLE,6,EDUCATION,Churton Park South,-41.21086631,174.8069531,Vivian East,-41.29691524,174.78007236,9.828533321370859,Wellington,Wellington
Beach Haven South,Penrose,DRIVE_COMPANY_VEHICLE,6,EDUCATION,Beach Haven South,-36.80714782,174.69419527,Penrose,-36.91999811,174.82258914,16.96854801771363,Waitakere,Waitakere
Shelly Park,East Tamaki,DRIVE_COMPANY_VEHICLE,39,EDUCATION,Shelly Park,-36.90830816,174.94645122,East Tamaki,-36.93823242,174.88712871,6.235424162467242,Manukau,Manukau
Tinwald North,Allenton South,DRIVE_COMPANY_VEHICLE,9,EDUCATION,Tinwald North,-43.91264327,171.72370365,Allenton South,-43.89054116,171.73232663,2.552901530320889,Ashburton,Ashburton
Swanson,North Harbour,DRIVE_COMPANY_VEHICLE,9,EDUCATION,Swanson,-36.86489607,174.58462975,North Harbour,-36.74630474,174.71502975,17.569103343310193,Waitakere,Waitakere
Helensville,Penrose,DRIVE_COMPANY_VEHICLE,6,EDUCATION,Helensville,-36.67496915,174.45425272,Penrose,-36.91999811,174.82258914,42.6375897329741,Rodney,Waitakere
Mandeville-Ohoka,Southbrook,DRIVE_COMPANY_VEHICLE,9,EDUCATION,Mandeville-Ohoka,-43.36686582,172.54447057,Southbrook,-43.32718073,172.59765801,6.16197123585733,Waimakariri,Waimakariri
Mairehau South,Lancaster Park,DRIVE_COMPANY_VEHICLE,9,EDUCATION,Mairehau South,-43.50208583,172.64539115,Lancaster Park,-43.5413884,172.6534567,4.418366772981601,Christchurch,Christchurch
Wingatui,Wingatui,DRIVE_COMPANY_VEHICLE,6,EDUCATION,Wingatui,-45.86700748,170.38627764,Wingatui,-45.86700748,170.38627764,0.0,Dunedin,Dunedin
Melville North,Te Rapa South,DRIVE_COMPANY_VEHICLE,12,EDUCATION,Melville North,-37.81091872,175.27938651,Te Rapa South,-37.76141322,175.24114614,6.449432374293678,Hamilton,Hamilton
Patumahoe,Pukekohe North West,DRIVE_COMPANY_VEHICLE,9,EDUCATION,Patumahoe,-37.17691755,174.83514067,Pukekohe North West,-37.18225476,174.89580342,5.4070256844361495,Franklin,Franklin
Mangorei,Westown ,DRIVE_COMPANY_VEHICLE,6,EDUCATION,Mangorei,-39.18102935,174.06017628,Westown,-39.0747742,174.06011109,11.815034947986096,New Plymouth,New Plymouth
New Lynn South,Henderson Lincoln East,DRIVE_COMPANY_VEHICLE,9,EDUCATION,New Lynn South,-36.92110202,174.68283768,Henderson Lincoln East,-36.85590078,174.63407425,8.44810587970754,Waitakere,Waitakere
Rosehill,Mount Wellington Industrial,DRIVE_COMPANY_VEHICLE,9,EDUCATION,Rosehill,-37.0807433,174.93811005,Mount Wellington Industrial,-36.92046064,174.85162182,19.40708821021649,Franklin,Waitakere
Howick East,Eden Terrace,DRIVE_COMPANY_VEHICLE,9,EDUCATION,Howick East,-36.90088621,174.930388,Eden Terrace,-36.86462613,174.75964083,15.71253427702041,Manukau,Waitakere
Monika Reserve,Tarawera Park,DRIVE_COMPANY_VEHICLE,15,EDUCATION,Monika Reserve,-38.09544004,176.67500308,Tarawera Park,-38.09034331,176.70935902,3.0594942671794234,Whakatane,Whakatane
Puhoi Valley,Puhoi Valley,DRIVE_COMPANY_VEHICLE,21,EDUCATION,Puhoi Valley,-36.46850912,174.62475233,Puhoi Valley,-36.46850912,174.62475233,0.0,Rodney,Rodney
King Edward Park,Turuturu,DRIVE_COMPANY_VEHICLE,9,EDUCATION,King Edward Park,-39.58215942,174.27683195,Turuturu,-39.57067046,174.2791488,1.2928540982797414,South Taranaki,South Taranaki
Daelyn,Nelson Central-Trafalgar,DRIVE_COMPANY_VEHICLE,6,EDUCATION,Daelyn,-41.33817502,173.21258863,Nelson Central-Trafalgar,-41.27273863,173.28210878,9.309364521921973,Tasman,Nelson
Weymouth North,Wiri West,DRIVE_COMPANY_VEHICLE,9,EDUCATION,Weymouth North,-37.03938307,174.86530684,Wiri West,-37.00828264,174.8624367,3.467584170683037,Franklin,Franklin
Tahuroa,Tahuroa,DRIVE_COMPANY_VEHICLE,18,EDUCATION,Tahuroa,-37.69903344,175.52480796,Tahuroa,-37.69903344,175.52480796,0.0,Matamata-Piako,Matamata-Piako
Mangapapa South,Makaraka-Awapuni,DRIVE_COMPANY_VEHICLE,18,EDUCATION,Mangapapa South,-38.64907911,178.0142546,Makaraka-Awapuni,-38.65787303,177.97255068,3.751108831878384,Gisborne,Gisborne
Ponsonby East,Mount Wellington Industrial,DRIVE_COMPANY_VEHICLE,6,EDUCATION,Ponsonby East,-36.85137951,174.74159318,Mount Wellington Industrial,-36.92046064,174.85162182,12.440412597372838,Waitakere,Waitakere
Ferndale,Waiwhakaiho-Bell Block South,DRIVE_COMPANY_VEHICLE,9,EDUCATION,Ferndale,-39.08975124,174.05803756,Waiwhakaiho-Bell Block South,-39.03639644,174.16426596,10.923112949036385,New Plymouth,New Plymouth
Okura Bush,Okura Bush,DRIVE_COMPANY_VEHICLE,9,EDUCATION,Okura Bush,-36.66711378,174.70992257,Okura Bush,-36.66711378,174.70992257,0.0,Rodney,Rodney
Green Bay South,New Lynn Central,DRIVE_COMPANY_VEHICLE,9,EDUCATION,Green Bay South,-36.93348489,174.67733798,New Lynn Central,-36.90748467,174.68596571,2.991099032906801,Waitakere,Waitakere
Prestons,Riccarton Central,DRIVE_COMPANY_VEHICLE,6,EDUCATION,Prestons,-43.47713961,172.667796,Riccarton Central,-43.53057675,172.59907505,8.12565941522907,Christchurch,Christchurch
Mellons Bay,Panmure Glen Innes Industrial,DRIVE_COMPANY_VEHICLE,9,EDUCATION,Mellons Bay,-36.88715946,174.93040248,Panmure Glen Innes Industrial,-36.88365468,174.85076184,7.093782362384228,Manukau,Waitakere
Pukehangi South,Ngapuna,DRIVE_COMPANY_VEHICLE,21,EDUCATION,Pukehangi South,-38.14208034,176.20726579,Ngapuna,-38.14682269,176.27047436,5.5526807608306035,Rotorua,Rotorua
Kirwee,Kirwee,DRIVE_COMPANY_VEHICLE,9,EDUCATION,Kirwee,-43.47484385,172.19966515,Kirwee,-43.47484385,172.19966515,0.0,Selwyn,Selwyn
Manuherikia-Ida Valleys,Manuherikia-Ida Valleys,DRIVE_COMPANY_VEHICLE,36,EDUCATION,Manuherikia-Ida Valleys,-45.0524266,169.7255609,Manuherikia-Ida Valleys,-45.0524266,169.7255609,0.0,Central Otago,Central Otago
Maungaraki,Maungaraki,DRIVE_COMPANY_VEHICLE,12,EDUCATION,Maungaraki,-41.20840978,174.87990307,Maungaraki,-41.20840978,174.87990307,0.0,Hutt city,Hutt city
Riverstone Terraces,Upper Hutt Central,DRIVE_COMPANY_VEHICLE,12,EDUCATION,Riverstone Terraces,-41.11205217,175.03826653,Upper Hutt Central,-41.12711172,175.07626489999996,3.5966314634483307,Upper Hutt,Upper Hutt
Ranui Domain,East Tamaki,DRIVE_COMPANY_VEHICLE,6,EDUCATION,Ranui Domain,-36.86589923,174.60427343,East Tamaki,-36.93823242,174.88712871,26.405799698539486,Waitakere,Manukau
Pihauatua,Tremaine,DRIVE_COMPANY_VEHICLE,15,EDUCATION,Pihauatua,-40.45284951,175.60466791,Tremaine,-40.33969042,175.59865691,12.593009015237529,Palmerston North,Palmerston North
Te Arai,Hangaroa,DRIVE_COMPANY_VEHICLE,6,EDUCATION,Te Arai,-38.65827971,177.89701491,Hangaroa,-38.67842084,177.63331484,23.00326431135983,Gisborne,Gisborne
Prebbleton,Rolleston Izone,DRIVE_COMPANY_VEHICLE,12,EDUCATION,Prebbleton,-43.57865333,172.50783629,Rolleston Izone,-43.58400200000001,172.37100014,11.038078731892996,Selwyn,Selwyn
Ararimu,Drury,DRIVE_COMPANY_VEHICLE,6,EDUCATION,Ararimu,-37.14686222,175.08246983,Drury,-37.10606959,174.93669402,13.696822519363351,Franklin,Franklin
Lansdowne West,Cameron and Soldiers Park,DRIVE_COMPANY_VEHICLE,6,EDUCATION,Lansdowne West,-40.93651284,175.6651881,Cameron and Soldiers Park,-40.95711923,175.66136336,2.3137337835502834,Masterton,Masterton
Wattle Downs East,Auckland Airport,DRIVE_COMPANY_VEHICLE,9,EDUCATION,Wattle Downs East,-37.04722333,174.8929496,Auckland Airport,-36.9891029,174.77400859,12.380578937040529,Franklin,Manukau
Balclutha South,Milton,DRIVE_COMPANY_VEHICLE,9,EDUCATION,Balclutha South,-46.24449018,169.72255412,Milton,-46.12167234,169.96750182,23.283401239922515,Clutha,Clutha
Fairfield (Hamilton City),Hamilton Central,DRIVE_COMPANY_VEHICLE,6,EDUCATION,Fairfield (Hamilton City),-37.76889278,175.284084,Hamilton Central,-37.78938082,175.28203067,2.285302226381029,Hamilton,Hamilton
Raglan,Te Rapa South,DRIVE_COMPANY_VEHICLE,15,EDUCATION,Raglan,-37.81138720000001,174.8538483,Te Rapa South,-37.76141322,175.24114614,34.48535173961367,Waikato,Hamilton
Arataki North,Tauranga South,DRIVE_COMPANY_VEHICLE,9,EDUCATION,Arataki North,-37.67104486,176.21679849,Tauranga South,-37.7084259,176.15681961,6.7179627631983285,Western Bay of Plenty,Western Bay of Plenty
Kelvin Grove West,Tremaine,DRIVE_COMPANY_VEHICLE,24,EDUCATION,Kelvin Grove West,-40.32856085,175.64441186,Tremaine,-40.33969042,175.59865691,4.070945493151655,Palmerston North,Palmerston North
Meadowbank East,Penrose,DRIVE_COMPANY_VEHICLE,12,EDUCATION,Meadowbank East,-36.86978506,174.83700703,Penrose,-36.91999811,174.82258914,5.728755342770209,Waitakere,Waitakere
Saint Johns West,Saint Johns West,DRIVE_COMPANY_VEHICLE,6,EDUCATION,Saint Johns West,-36.88206283,174.83365741,Saint Johns West,-36.88206283,174.83365741,0.0,Waitakere,Waitakere
Sandringham Central,Eden Terrace,DRIVE_COMPANY_VEHICLE,9,EDUCATION,Sandringham Central,-36.88819147,174.73385278,Eden Terrace,-36.86462613,174.75964083,3.4824925532196023,Waitakere,Waitakere
Oteha West,North Harbour,DRIVE_COMPANY_VEHICLE,6,EDUCATION,Oteha West,-36.72206732,174.71686745,North Harbour,-36.74630474,174.71502975,2.700049057607211,Waitakere,Waitakere
Oreti River,Oreti River,DRIVE_COMPANY_VEHICLE,45,EDUCATION,Oreti River,-46.00268489,168.31789888,Oreti River,-46.00268489,168.31789888,0.0,Southland,Southland
Red Hill,Papakura Central,DRIVE_COMPANY_VEHICLE,9,EDUCATION,Red Hill,-37.06738541,174.97729374,Papakura Central,-37.06542305,174.94281885,3.066612776948156,Franklin,Franklin
Turangi,Lake Taupo Bays,DRIVE_COMPANY_VEHICLE,9,EDUCATION,Turangi,-38.99284557,175.80606909999997,Lake Taupo Bays,-38.87191067,175.73166979,14.907870960246838,Taupo,Taupo
Karori South,Petone Central,DRIVE_COMPANY_VEHICLE,6,EDUCATION,Karori South,-41.28902351,174.73328551,Petone Central,-41.22362356,174.86969444,13.524332165227245,Wellington,Hutt city
Waiotahi,Waiotahi,DRIVE_COMPANY_VEHICLE,21,EDUCATION,Waiotahi,-38.04672615,177.2017177,Waiotahi,-38.04672615,177.2017177,0.0,Opotiki,Opotiki
Te Awamutu Central,Te Awamutu Central,DRIVE_COMPANY_VEHICLE,6,EDUCATION,Te Awamutu Central,-38.0102104,175.32638804,Te Awamutu Central,-38.0102104,175.32638804,0.0,Waipa,Waipa
Tahuna Hills,Saxton,DRIVE_COMPANY_VEHICLE,9,EDUCATION,Tahuna Hills,-41.29106093,173.25332264,Saxton,-41.33372364,173.22163245,5.4322995770553275,Nelson,Nelson
Belmont (Lower Hutt City),Petone Central,DRIVE_COMPANY_VEHICLE,15,EDUCATION,Belmont (Lower Hutt City),-41.1900686,174.92123901,Petone Central,-41.22362356,174.86969444,5.7021795315561485,Hutt city,Hutt city
Spreydon West,Spreydon West,DRIVE_COMPANY_VEHICLE,6,EDUCATION,Spreydon West,-43.55299393,172.6045523,Spreydon West,-43.55299393,172.6045523,0.0,Christchurch,Christchurch
Marton Rural,Tremaine,DRIVE_COMPANY_VEHICLE,6,EDUCATION,Marton Rural,-40.10983805,175.37739628,Tremaine,-40.33969042,175.59865691,31.719107132673642,Rangitikei,Palmerston North
Te Uku,Frankton Junction ,DRIVE_COMPANY_VEHICLE,18,EDUCATION,Te Uku,-37.88322634,174.93821165,Frankton Junction,-37.79650916,175.26255885,30.07008374935609,Waikato,Hamilton
Huntington,Ruakura,DRIVE_COMPANY_VEHICLE,6,EDUCATION,Huntington,-37.74374104,175.28372029,Ruakura,-37.77240012,175.31761726,4.3629413415669385,Hamilton,Waikato
West Melton,Sydenham Central,DRIVE_COMPANY_VEHICLE,9,EDUCATION,West Melton,-43.52569623,172.36518722,Sydenham Central,-43.54360725,172.6376644,22.054931174980922,Selwyn,Christchurch
Rolleston North West,Christchurch Airport,DRIVE_COMPANY_VEHICLE,12,EDUCATION,Rolleston North West,-43.60086348,172.36340669999996,Christchurch Airport,-43.48221523,172.54383636,19.635630313782197,Selwyn,Christchurch
Papanui East,Tower Junction,DRIVE_COMPANY_VEHICLE,6,EDUCATION,Papanui East,-43.49804758,172.61506457,Tower Junction,-43.53882448,172.60794226,4.570409550500563,Christchurch,Christchurch
Templeton,Middleton,DRIVE_COMPANY_VEHICLE,9,EDUCATION,Templeton,-43.55260267,172.46962786,Middleton,-43.54208461,172.58331091,9.236592650433844,Christchurch,Christchurch
Dairy Flat West,Silverdale Central (Auckland),DRIVE_COMPANY_VEHICLE,6,EDUCATION,Dairy Flat West,-36.67100483,174.61891208,Silverdale Central (Auckland),-36.62402013,174.67493059999995,7.229901340184793,Rodney,Rodney
Wainuiomata West,Hutt Central North,DRIVE_COMPANY_VEHICLE,9,EDUCATION,Wainuiomata West,-41.25104641,174.93287708,Hutt Central North,-41.20872236,174.90664869,5.192249631179322,Hutt city,Hutt city
Redwood North,Christchurch Central-South,DRIVE_COMPANY_VEHICLE,9,EDUCATION,Redwood North,-43.46919569,172.62469572,Christchurch Central-South,-43.53815861,172.64240289,7.800180182764318,Christchurch,Christchurch
Muriwai,Kumeu-Huapai,DRIVE_COMPANY_VEHICLE,9,EDUCATION,Muriwai,-36.82525102,174.42922639,Kumeu-Huapai,-36.76998293,174.54286666,11.838591395334737,Rodney,Rodney
Tikipunga South,Abbey Caves-Glenbervie,DRIVE_COMPANY_VEHICLE,6,EDUCATION,Tikipunga South,-35.69457731,174.33166497,Abbey Caves-Glenbervie,-35.70399025,174.36122936,2.8675230467724457,Whangarei,Whangarei
Glendowie South,Ellerslie West,DRIVE_COMPANY_VEHICLE,6,EDUCATION,Glendowie South,-36.8646606,174.8672379,Ellerslie West,-36.89897117,174.80612464,6.640823761052412,Waitakere,Waitakere
Wingatui,Dunedin Central,DRIVE_COMPANY_VEHICLE,12,EDUCATION,Wingatui,-45.86700748,170.38627764,Dunedin Central,-45.87712471,170.50291221,9.099759375798646,Dunedin,Dunedin
Glenholme South,Glenholme South,DRIVE_COMPANY_VEHICLE,9,EDUCATION,Glenholme South,-38.15361117,176.24756632,Glenholme South,-38.15361117,176.24756632,0.0,Rotorua,Rotorua
Maungaraki,Newlands South,DRIVE_COMPANY_VEHICLE,6,EDUCATION,Maungaraki,-41.20840978,174.87990307,Newlands South,-41.23454859,174.82124819,5.702102842574267,Hutt city,Wellington
Rongomai West,Auckland Airport,DRIVE_COMPANY_VEHICLE,6,EDUCATION,Rongomai West,-36.97393225,174.88932555,Auckland Airport,-36.9891029,174.77400859,10.381095547017765,Manukau,Manukau
Gore North,Gore Central,DRIVE_COMPANY_VEHICLE,54,EDUCATION,Gore North,-46.09161463,168.93868798,Gore Central,-46.09988752,168.94520063,1.0480501124284247,Gore,Gore
Mission Bay,Parnell West,DRIVE_COMPANY_VEHICLE,12,EDUCATION,Mission Bay,-36.855756,174.83237219,Parnell West,-36.85679261,174.77798053,4.840696489466822,Waitakere,Waitakere
Wattle Downs West,Mount Wellington Industrial,DRIVE_COMPANY_VEHICLE,12,EDUCATION,Wattle Downs West,-37.05128128,174.87522682,Mount Wellington Industrial,-36.92046064,174.85162182,14.696907983438141,Franklin,Waitakere
Solway North,Douglas Park,DRIVE_COMPANY_VEHICLE,6,EDUCATION,Solway North,-40.9574562,175.63029837,Douglas Park,-40.94626766,175.65254353,2.244522299228238,Masterton,Masterton
Stanmore Bay West,Wairau Valley ,DRIVE_COMPANY_VEHICLE,12,EDUCATION,Stanmore Bay West,-36.62300197,174.72724226,Wairau Valley,-36.77355541,174.73453173,16.75338877724992,Rodney,Waitakere
Howick Central,East Tamaki,DRIVE_COMPANY_VEHICLE,36,EDUCATION,Howick Central,-36.89922262,174.92368474,East Tamaki,-36.93823242,174.88712871,5.4200318818870565,Manukau,Manukau
Lynfield South,North Harbour,DRIVE_COMPANY_VEHICLE,12,EDUCATION,Lynfield South,-36.93014096,174.72013007,North Harbour,-36.74630474,174.71502975,20.446693530760157,Waitakere,Waitakere
Ferguson,East Tamaki,DRIVE_COMPANY_VEHICLE,6,EDUCATION,Ferguson,-36.966167,174.88252157,East Tamaki,-36.93823242,174.88712871,3.1330459603984893,Manukau,Manukau
Otahuhu Central,Otahuhu Central,DRIVE_COMPANY_VEHICLE,6,EDUCATION,Otahuhu Central,-36.94175556,174.83604598,Otahuhu Central,-36.94175556,174.83604598,0.0,Waitakere,Waitakere
Westgate South,Henderson Central,DRIVE_COMPANY_VEHICLE,6,EDUCATION,Westgate South,-36.82710769,174.60791923,Henderson Central,-36.88968581,174.62928426,7.213325762541139,Waitakere,Waitakere
Glen Innes East-Wai O Taiki Bay,Mount Wellington Industrial,DRIVE_COMPANY_VEHICLE,6,EDUCATION,Glen Innes East-Wai O Taiki Bay,-36.87360239,174.87120197,Mount Wellington Industrial,-36.92046064,174.85162182,5.4936212083623985,Waitakere,Waitakere
Ormiston South,Ormiston South,DRIVE_COMPANY_VEHICLE,18,EDUCATION,Ormiston South,-36.97596797,174.9175859,Ormiston South,-36.97596797,174.9175859,0.0,Manukau,Manukau
Hamilton East,Frankton Junction ,DRIVE_COMPANY_VEHICLE,21,EDUCATION,Hamilton East,-37.80128004,175.30076378,Frankton Junction,-37.79650916,175.26255885,3.3984430475466465,Hamilton,Hamilton
Birkenhead North,Penrose,DRIVE_COMPANY_VEHICLE,6,EDUCATION,Birkenhead North,-36.80733528,174.72689987,Penrose,-36.91999811,174.82258914,15.146195167141471,Waitakere,Waitakere
Glentunnel,Darfield,DRIVE_COMPANY_VEHICLE,9,EDUCATION,Glentunnel,-43.47318088,172.01364558,Darfield,-43.49796117,172.09991696,7.485715784280461,Selwyn,Selwyn
Wainui ,Wainui ,DRIVE_COMPANY_VEHICLE,6,EDUCATION,Wainui,-38.01390602,177.03388212,Wainui,-38.01390602,177.03388212,0.0,Whakatane,Whakatane
Glen Eden West,East Tamaki,DRIVE_COMPANY_VEHICLE,6,EDUCATION,Glen Eden West,-36.91301994,174.62881821,East Tamaki,-36.93823242,174.88712871,23.131987683314986,Waitakere,Manukau
Blaketown,Greymouth Central,DRIVE_COMPANY_VEHICLE,18,EDUCATION,Blaketown,-42.44740905,171.19758926,Greymouth Central,-42.45704831,171.19924986,1.0804610807080424,Grey,Grey
Paraparaumu Beach East,Paraparaumu Central,DRIVE_COMPANY_VEHICLE,12,EDUCATION,Paraparaumu Beach East,-40.89483919,174.99338163,Paraparaumu Central,-40.90799495,174.99886348,1.533690760156864,Kapiti Coast,Kapiti Coast
Aidanfield,Islington-Hornby Industrial,DRIVE_COMPANY_VEHICLE,12,EDUCATION,Aidanfield,-43.56445434,172.56732388,Islington-Hornby Industrial,-43.5526063,172.50828849,4.936114316596688,Christchurch,Christchurch
Epsom Central-South,Mount Wellington Industrial,DRIVE_COMPANY_VEHICLE,9,EDUCATION,Epsom Central-South,-36.89675875,174.76787408,Mount Wellington Industrial,-36.92046064,174.85162182,7.898743728917987,Waitakere,Waitakere
Ohau-Manakau,Paraparaumu Central,DRIVE_COMPANY_VEHICLE,9,EDUCATION,Ohau-Manakau,-40.69886257,175.20752463,Paraparaumu Central,-40.90799495,174.99886348,29.141472922027358,Horowhenua,Kapiti Coast
Rosehill,Papakura Central,DRIVE_COMPANY_VEHICLE,12,EDUCATION,Rosehill,-37.0807433,174.93811005,Papakura Central,-37.06542305,174.94281885,1.7540099611996842,Franklin,Franklin
Dingwall,Dingwall,DRIVE_COMPANY_VEHICLE,15,EDUCATION,Dingwall,-36.96337293,174.86069682,Dingwall,-36.96337293,174.86069682,0.0,Manukau,Manukau
Avondale (Christchurch City),Wainoni,DRIVE_COMPANY_VEHICLE,9,EDUCATION,Avondale (Christchurch City),-43.50772731,172.69299144,Wainoni,-43.51845163,172.68982292,1.2195565462004736,Christchurch,Christchurch
New Lynn Seabrook,New Lynn Central,DRIVE_COMPANY_VEHICLE,6,EDUCATION,New Lynn Seabrook,-36.91793217,174.6718063,New Lynn Central,-36.90748467,174.68596571,1.7129768948728004,Waitakere,Waitakere
Moulson,Prestonville-Grasmere,DRIVE_COMPANY_VEHICLE,6,EDUCATION,Moulson,-46.43454531,168.37684401,Prestonville-Grasmere,-46.38023874,168.34165711,6.61386627208493,Invercargill,Invercargill
Wilkes Park,Golden Downs,DRIVE_COMPANY_VEHICLE,6,EDUCATION,Wilkes Park,-41.34753186,173.18668242,Golden Downs,-41.50890922,172.78826525,37.753962447716226,Tasman,Tasman
Pleasant Point,Timaru Central,DRIVE_COMPANY_VEHICLE,15,EDUCATION,Pleasant Point,-44.25662164,171.1360097,Timaru Central,-44.39838399,171.2514175,18.24150776008521,Timaru,Timaru
East Gore,Gore Central,DRIVE_COMPANY_VEHICLE,36,EDUCATION,East Gore,-46.08957912,168.96136282,Gore Central,-46.09988752,168.94520063,1.6932381849849425,Gore,Gore
Welcome Bay South,Greerton South,DRIVE_COMPANY_VEHICLE,18,EDUCATION,Welcome Bay South,-37.73637425,176.19743547,Greerton South,-37.72765679,176.12518714,6.427182255891683,Western Bay of Plenty,Western Bay of Plenty
Waitikiri,Christchurch Central,DRIVE_COMPANY_VEHICLE,6,EDUCATION,Waitikiri,-43.46773853,172.6744824,Christchurch Central,-43.53243368,172.63601635,7.834309954369129,Christchurch,Christchurch
Millwater North,Wairau Valley ,DRIVE_COMPANY_VEHICLE,15,EDUCATION,Millwater North,-36.6014983,174.67227556,Wairau Valley,-36.77355541,174.73453173,19.920969980678013,Rodney,Waitakere
Papatoetoe West,Papatoetoe West,DRIVE_COMPANY_VEHICLE,9,EDUCATION,Papatoetoe West,-36.98008106,174.84650545,Papatoetoe West,-36.98008106,174.84650545,0.0,Manukau,Manukau
Northcote (Christchurch City),Sydenham Central,DRIVE_COMPANY_VEHICLE,9,EDUCATION,Northcote (Christchurch City),-43.48988035,172.61871397,Sydenham Central,-43.54360725,172.6376644,6.16648981671699,Christchurch,Christchurch
Glendale,Petone East,DRIVE_COMPANY_VEHICLE,6,EDUCATION,Glendale,-41.2429916,174.95473935,Petone East,-41.2248184,174.89062655,5.729394646840667,Hutt city,Hutt city
Kaurilands,Kaurilands,DRIVE_COMPANY_VEHICLE,9,EDUCATION,Kaurilands,-36.92947622,174.65583671,Kaurilands,-36.92947622,174.65583671,0.0,Waitakere,Waitakere
Awatea North,Sockburn South,DRIVE_COMPANY_VEHICLE,15,EDUCATION,Awatea North,-43.55272616,172.53849075,Sockburn South,-43.5449149,172.56350496,2.1951136483197486,Christchurch,Christchurch
East Taieri,Harbourside,DRIVE_COMPANY_VEHICLE,18,EDUCATION,East Taieri,-45.89103385,170.35188942,Harbourside,-45.86782727,170.53130076,14.126032572190885,Dunedin,Dunedin
Charing Cross,Charing Cross,DRIVE_COMPANY_VEHICLE,6,EDUCATION,Charing Cross,-43.56459027,172.15086518,Charing Cross,-43.56459027,172.15086518,0.0,Selwyn,Selwyn
Mangere Bridge,Mount Wellington Industrial,DRIVE_COMPANY_VEHICLE,9,EDUCATION,Mangere Bridge,-36.94356976,174.78854005,Mount Wellington Industrial,-36.92046064,174.85162182,6.1677075673761115,Manukau,Waitakere
Lincoln East,Lincoln West,DRIVE_COMPANY_VEHICLE,6,EDUCATION,Lincoln East,-43.638533,172.49369169,Lincoln West,-43.64345571,172.47791199,1.382740815668858,Selwyn,Selwyn
Ngahinapouri,Frankton Junction ,DRIVE_COMPANY_VEHICLE,18,EDUCATION,Ngahinapouri,-37.86550268,175.20500766,Frankton Junction,-37.79650916,175.26255885,9.187074130387517,Waipa,Hamilton
Redwood East,Christchurch Airport,DRIVE_COMPANY_VEHICLE,9,EDUCATION,Redwood East,-43.47970507,172.62290932,Christchurch Airport,-43.48221523,172.54383636,6.385976222368465,Christchurch,Christchurch
Howick West,Manukau Central,DRIVE_COMPANY_VEHICLE,12,EDUCATION,Howick West,-36.89320364,174.91979511,Manukau Central,-36.99138991,174.86947528,11.798197983354376,Manukau,Manukau
Twyford,Twyford,DRIVE_COMPANY_VEHICLE,21,EDUCATION,Twyford,-39.59961385,176.81874894,Twyford,-39.59961385,176.81874894,0.0,Hastings city,Hastings city
Spreydon South,Lancaster Park,DRIVE_COMPANY_VEHICLE,6,EDUCATION,Spreydon South,-43.5582285,172.61334307,Lancaster Park,-43.5413884,172.6534567,3.735968493732013,Christchurch,Christchurch
Mandeville-Ohoka,Woolston South,DRIVE_COMPANY_VEHICLE,6,EDUCATION,Mandeville-Ohoka,-43.36686582,172.54447057,Woolston South,-43.56123026,172.68421207,24.37796961295968,Waimakariri,Christchurch
Panmure East,East Tamaki,DRIVE_COMPANY_VEHICLE,12,EDUCATION,Panmure East,-36.9022851,174.86035751,East Tamaki,-36.93823242,174.88712871,4.652004296266107,Waitakere,Manukau
Darfield,Islington-Hornby Industrial,DRIVE_COMPANY_VEHICLE,12,EDUCATION,Darfield,-43.49796117,172.09991696,Islington-Hornby Industrial,-43.5526063,172.50828849,33.480571463724786,Selwyn,Christchurch
Tamakae,East Tamaki,DRIVE_COMPANY_VEHICLE,12,EDUCATION,Tamakae,-37.2446936,174.72332941,East Tamaki,-36.93823242,174.88712871,37.044762973386895,Franklin,Manukau
Foxton Beach,Foxton South,DRIVE_COMPANY_VEHICLE,15,EDUCATION,Foxton Beach,-40.46403695,175.23078759,Foxton South,-40.48423901,175.31104993,7.151048557624142,Horowhenua,Horowhenua
Owhanga,Owhanga,DRIVE_COMPANY_VEHICLE,15,EDUCATION,Owhanga,-40.51321329,176.31039241,Owhanga,-40.51321329,176.31039241,0.0,Tararua,Tararua
Totara Vale North,Wairau Valley ,DRIVE_COMPANY_VEHICLE,15,EDUCATION,Totara Vale North,-36.75965827,174.73009473,Wairau Valley,-36.77355541,174.73453173,1.5950338162487918,Waitakere,Waitakere
South New Brighton,South New Brighton,DRIVE_COMPANY_VEHICLE,12,EDUCATION,South New Brighton,-43.53129617,172.73917693,South New Brighton,-43.53129617,172.73917693,0.0,,
Mount Pleasant,Christchurch Central-West,DRIVE_COMPANY_VEHICLE,6,EDUCATION,Mount Pleasant,-43.56433719,172.71890228,Christchurch Central-West,-43.52780609,172.6306519,8.190871168954343,Christchurch,Christchurch
Kingseat-Karaka,Drury Rural,DRIVE_COMPANY_VEHICLE,9,EDUCATION,Kingseat-Karaka,-37.12442419,174.82148593,Drury Rural,-37.11220768,174.97476145,13.658022398745606,Franklin,Franklin
Ruakaka,Whangarei Central,DRIVE_COMPANY_VEHICLE,30,EDUCATION,Ruakaka,-35.87869623,174.45727498,Whangarei Central,-35.72846995,174.32430322,20.56300094624227,Whangarei,Whangarei
Waimea West,Waimea West,DRIVE_COMPANY_VEHICLE,15,EDUCATION,Waimea West,-41.32976373,173.08124813,Waimea West,-41.32976373,173.08124813,0.0,Tasman,Tasman
Leamington East,Leamington East,DRIVE_COMPANY_VEHICLE,9,EDUCATION,Leamington East,-37.902915,175.48298816,Leamington East,-37.902915,175.48298816,0.0,Waipa,Waipa
Tainui,Hillside-Portsmouth Drive,DRIVE_COMPANY_VEHICLE,15,EDUCATION,Tainui,-45.90348586,170.52778609,Hillside-Portsmouth Drive,-45.89228448,170.50432869999997,2.20147396121222,Dunedin,Dunedin
Western Heights (Hamilton City),Peachgrove,DRIVE_COMPANY_VEHICLE,9,EDUCATION,Western Heights (Hamilton City),-37.78528581,175.22663967,Peachgrove,-37.77692046,175.2973258,6.281413637031064,Waikato,Hamilton
Ilam North,Middleton,DRIVE_COMPANY_VEHICLE,9,EDUCATION,Ilam North,-43.51329549,172.5691116,Middleton,-43.54208461,172.58331091,3.3997334009518223,Christchurch,Christchurch
Tikipunga South,Whangarei Central,DRIVE_COMPANY_VEHICLE,57,EDUCATION,Tikipunga South,-35.69457731,174.33166497,Whangarei Central,-35.72846995,174.32430322,3.8268529249105576,Whangarei,Whangarei
Tauranga Central,Mount Maunganui Central,DRIVE_COMPANY_VEHICLE,18,EDUCATION,Tauranga Central,-37.67947411,176.16704264,Mount Maunganui Central,-37.66423891,176.19448097,2.949888059406675,,Western Bay of Plenty
Tamaki,Penrose,DRIVE_COMPANY_VEHICLE,15,EDUCATION,Tamaki,-36.89521581,174.86187464,Penrose,-36.91999811,174.82258914,4.449091393765737,Waitakere,Waitakere
Matarawa,Tokoroa Central,DRIVE_COMPANY_VEHICLE,18,EDUCATION,Matarawa,-38.22438631,175.85345651,Tokoroa Central,-38.2230221,175.8734232,1.7507710831108765,South Waikato,South Waikato
Mahia,Mahia,DRIVE_COMPANY_VEHICLE,6,EDUCATION,Mahia,-38.98042026,177.71581946,Mahia,-38.98042026,177.71581946,0.0,Wairoa,Wairoa
Waldronville,Waldronville,DRIVE_COMPANY_VEHICLE,6,EDUCATION,Waldronville,-45.91984564,170.42553453,Waldronville,-45.91984564,170.42553453,0.0,Dunedin,Dunedin
Greenhithe West,Penrose,DRIVE_COMPANY_VEHICLE,12,EDUCATION,Greenhithe West,-36.77353411,174.67354745,Penrose,-36.91999811,174.82258914,21.00285854362484,Waitakere,Waitakere
Green Island,Fairfield (Dunedin City),DRIVE_COMPANY_VEHICLE,6,EDUCATION,Green Island,-45.90709712,170.43736925,Fairfield (Dunedin City),-45.90161406,170.40079741,2.8947140812855565,Dunedin,Dunedin
Stokes Valley Central,Gracefield,DRIVE_COMPANY_VEHICLE,15,EDUCATION,Stokes Valley Central,-41.16891621,174.97736126,Gracefield,-41.24017306,174.91075379,9.686633932690514,Hutt city,Hutt city
Westshore,Onekawa West,DRIVE_COMPANY_VEHICLE,15,EDUCATION,Westshore,-39.4746211,176.88117125,Onekawa West,-39.49700088,176.88218064,2.4900252097924227,Napier,Hastings
Maeroa,Kirikiriroa,DRIVE_COMPANY_VEHICLE,9,EDUCATION,Maeroa,-37.77834857,175.26028849,Kirikiriroa,-37.7819599,175.27469286,1.3280885971564649,Hamilton,Hamilton
Hospital Hill,Napier Central,DRIVE_COMPANY_VEHICLE,30,EDUCATION,Hospital Hill,-39.48954321,176.90207674,Napier Central,-39.49277802,176.91573492,1.2259839585936751,Napier,Napier
Upper Wairau ,Renwick,DRIVE_COMPANY_VEHICLE,9,EDUCATION,Upper Wairau,-41.71793751,173.30406264,Renwick,-41.50813804,173.82591754,49.25849156070403,Marlborough,Marlborough
Temuka East,Washdyke,DRIVE_COMPANY_VEHICLE,36,EDUCATION,Temuka East,-44.24725922,171.29783677,Washdyke,-44.35333362,171.24781336,12.448620190262131,Timaru,Timaru
Ohaeawai-Waimate North,Puketona-Waitangi,DRIVE_COMPANY_VEHICLE,6,EDUCATION,Ohaeawai-Waimate North,-35.33520904,173.85992372,Puketona-Waitangi,-35.27991822,174.00095246,14.19743686459466,Far North,Far North
Te Papapa,East Tamaki,DRIVE_COMPANY_VEHICLE,9,EDUCATION,Te Papapa,-36.91863866,174.79648981,East Tamaki,-36.93823242,174.88712871,8.346079093128035,Waitakere,Manukau
Everett Park,Everett Park,DRIVE_COMPANY_VEHICLE,15,EDUCATION,Everett Park,-39.22793305,174.18116727,Everett Park,-39.22793305,174.18116727,0.0,New Plymouth,New Plymouth
Delaney,Petone Central,DRIVE_COMPANY_VEHICLE,9,EDUCATION,Delaney,-41.1864706,174.97924526,Petone Central,-41.22362356,174.86969444,10.052915359906493,Hutt city,Hutt city
Longlands-Pukahu,Hastings Central,DRIVE_COMPANY_VEHICLE,21,EDUCATION,Longlands-Pukahu,-39.67130041,176.82499355,Hastings Central,-39.63962329,176.84642759,3.97162876822425,Hastings,Hastings city
Lake Manuwai-Kapiro,Waipapa,DRIVE_COMPANY_VEHICLE,15,EDUCATION,Lake Manuwai-Kapiro,-35.18267324,173.86535013,Waipapa,-35.2099338,173.91841396,5.695385689397793,Far North,Far North
West Harbour Luckens Point,North Harbour,DRIVE_COMPANY_VEHICLE,12,EDUCATION,West Harbour Luckens Point,-36.81802341,174.63695983,North Harbour,-36.74630474,174.71502975,10.580047059788807,Waitakere,Waitakere
Albany Heights,Penrose,DRIVE_COMPANY_VEHICLE,6,EDUCATION,Albany Heights,-36.71796472,174.69401393,Penrose,-36.91999811,174.82258914,25.212520538974513,Waitakere,Waitakere
Blagdon-Lynmouth,New Plymouth Central,DRIVE_COMPANY_VEHICLE,27,EDUCATION,Blagdon-Lynmouth,-39.07074008,174.04322204,New Plymouth Central,-39.05700192,174.07537454,3.168507117936862,New Plymouth,New Plymouth
Point Chevalier West,East Tamaki,DRIVE_COMPANY_VEHICLE,6,EDUCATION,Point Chevalier West,-36.86564859,174.70246177,East Tamaki,-36.93823242,174.88712871,18.29664738236292,Waitakere,Manukau
Kauri,Kensington (Whangarei District),DRIVE_COMPANY_VEHICLE,6,EDUCATION,Kauri,-35.62944367,174.28665672,Kensington (Whangarei District),-35.71310137,174.30833235,9.506144686796313,Whangarei,Whangarei
Hilltop (Taupo District),Taupo Central West,DRIVE_COMPANY_VEHICLE,27,EDUCATION,Hilltop (Taupo District),-38.69976213,176.09915047,Taupo Central West,-38.6847684,176.07304191,2.8132088075346835,Taupo,Taupo
Wairoa,Wairoa,DRIVE_COMPANY_VEHICLE,72,EDUCATION,Wairoa,-39.03908469,177.41898076,Wairoa,-39.03908469,177.41898076,0.0,Wairoa,Wairoa
Paraparaumu Beach East,Wellington Central,DRIVE_COMPANY_VEHICLE,6,EDUCATION,Paraparaumu Beach East,-40.89483919,174.99338163,Wellington Central,-41.2849345,174.77572593,47.055819132804785,Kapiti Coast,Wellington
Onslow,Wellington Central,DRIVE_COMPANY_VEHICLE,15,EDUCATION,Onslow,-41.24952131,174.80282147,Wellington Central,-41.2849345,174.77572593,4.542518052311738,Wellington,Wellington
Tahuna Hills,Tahuna Hills,DRIVE_COMPANY_VEHICLE,15,EDUCATION,Tahuna Hills,-41.29106093,173.25332264,Tahuna Hills,-41.29106093,173.25332264,0.0,Nelson,Nelson
Papakowhai,Wellington Central,DRIVE_COMPANY_VEHICLE,9,EDUCATION,Papakowhai,-41.11593264,174.86350564,Wellington Central,-41.2849345,174.77572593,20.17620681060206,Porirua,Wellington
Aokautere Rural,Palmerston North Central,DRIVE_COMPANY_VEHICLE,15,EDUCATION,Aokautere Rural,-40.3679274,175.71806409,Palmerston North Central,-40.35537702,175.61010962,9.252550419238618,Palmerston North,Palmerston North
Burnside,Riccarton Central,DRIVE_COMPANY_VEHICLE,9,EDUCATION,Burnside,-43.50309147,172.5759413,Riccarton Central,-43.53057675,172.59907505,3.5805337729718567,Christchurch,Christchurch
Saddle Hill-Chain Hills,Harbourside,DRIVE_COMPANY_VEHICLE,9,EDUCATION,Saddle Hill-Chain Hills,-45.91291031,170.38272517,Harbourside,-45.86782727,170.53130076,12.544268903955354,Dunedin,Dunedin
Arundel,Washdyke,DRIVE_COMPANY_VEHICLE,6,EDUCATION,Arundel,-44.06044997,171.05797729,Washdyke,-44.35333362,171.24781336,35.91067990682738,Timaru,Timaru
Avalon East,Gracefield,DRIVE_COMPANY_VEHICLE,6,EDUCATION,Avalon East,-41.19581347,174.94455461,Gracefield,-41.24017306,174.91075379,5.685330740072078,Hutt city,Hutt city
Boulcott,Taita South,DRIVE_COMPANY_VEHICLE,9,EDUCATION,Boulcott,-41.19937004,174.92439872,Taita South,-41.18492338,174.95918534,3.324611444987482,Hutt city,Hutt city
Lower Waitaki,Maheno,DRIVE_COMPANY_VEHICLE,6,EDUCATION,Lower Waitaki,-45.00239341,171.02035686,Maheno,-45.27731871,170.70534409,39.306703090974274,Waitaki,Waitaki
Somerfield East,Christchurch Central-South,DRIVE_COMPANY_VEHICLE,12,EDUCATION,Somerfield East,-43.55924724,172.62950338,Christchurch Central-South,-43.53815861,172.64240289,2.5650672098444667,Christchurch,Christchurch
Riversdale-Piano Flat,Lumsden-Balfour,DRIVE_COMPANY_VEHICLE,6,EDUCATION,Riversdale-Piano Flat,-45.48645863,169.03162811,Lumsden-Balfour,-45.74921739,168.61002109,43.91861280202427,Southland,Southland
South Head,North Harbour,DRIVE_COMPANY_VEHICLE,15,EDUCATION,South Head,-36.59353204,174.31227374,North Harbour,-36.74630474,174.71502975,39.7353608857163,Rodney,Waitakere
Maungaturoto,Dargaville,DRIVE_COMPANY_VEHICLE,6,EDUCATION,Maungaturoto,-36.10952458,174.34693916,Dargaville,-35.93920158,173.86524045,47.278570118241355,Kaipara,Kaipara
Epsom South,Penrose,DRIVE_COMPANY_VEHICLE,15,EDUCATION,Epsom South,-36.90439621,174.7662217,Penrose,-36.91999811,174.82258914,5.303230254787156,Waitakere,Waitakere
Northcote Central (Auckland),North Harbour,DRIVE_COMPANY_VEHICLE,6,EDUCATION,Northcote Central (Auckland),-36.79888947,174.74444417,North Harbour,-36.74630474,174.71502975,6.407275856348827,Waitakere,Waitakere
Ngakuru,Golden Springs,DRIVE_COMPANY_VEHICLE,6,EDUCATION,Ngakuru,-38.3265856,176.19950049,Golden Springs,-38.43903714,176.350431,18.149966663273066,Rotorua,Rotorua
Pukekawa,Tuakau North,DRIVE_COMPANY_VEHICLE,6,EDUCATION,Pukekawa,-37.35591115,175.00526866,Tuakau North,-37.25721309,174.94816256,12.081164892164788,Franklin,Franklin
Maungaraki,Vivian East,DRIVE_COMPANY_VEHICLE,9,EDUCATION,Maungaraki,-41.20840978,174.87990307,Vivian East,-41.29691524,174.78007236,12.903528745363671,Hutt city,Wellington
Saint Andrews East,Kirikiriroa,DRIVE_COMPANY_VEHICLE,6,EDUCATION,Saint Andrews East,-37.75334806,175.26167671,Kirikiriroa,-37.7819599,175.27469286,3.380959648773456,Hamilton,Hamilton
Hillcrest West (Hamilton City),Hamilton Central,DRIVE_COMPANY_VEHICLE,9,EDUCATION,Hillcrest West (Hamilton City),-37.79546663,175.31326581,Hamilton Central,-37.78938082,175.28203067,2.8268325921673485,Hamilton,Hamilton
Owhiro Bay,Pipitea-Kaiwharawhara,DRIVE_COMPANY_VEHICLE,9,EDUCATION,Owhiro Bay,-41.33789607,174.76120032,Pipitea-Kaiwharawhara,-41.27624822,174.78772639,7.204109589178178,Wellington,Wellington
Somerville,Penrose,DRIVE_COMPANY_VEHICLE,27,EDUCATION,Somerville,-36.91234246,174.93394109,Penrose,-36.91999811,174.82258914,9.935947658728496,Manukau,Waitakere
Raumati Beach West,Wellington Central,DRIVE_COMPANY_VEHICLE,9,EDUCATION,Raumati Beach West,-40.91582202,174.98216422,Wellington Central,-41.2849345,174.77572593,44.539602409669655,Kapiti Coast,Wellington
Papakura North East,Drury,DRIVE_COMPANY_VEHICLE,6,EDUCATION,Papakura North East,-37.05143433,174.96594275,Drury,-37.10606959,174.93669402,6.6060709677432845,Franklin,Franklin
Army Bay,Army Bay,DRIVE_COMPANY_VEHICLE,12,EDUCATION,Army Bay,-36.60509803,174.82325733,Army Bay,-36.60509803,174.82325733,0.0,Rodney,Rodney
Allenton East,Ashburton East,DRIVE_COMPANY_VEHICLE,9,EDUCATION,Allenton East,-43.89118299,171.75756446,Ashburton East,-43.90293675,171.75799844,1.307420982579512,Ashburton,Ashburton
Moutere Hills,Nelson Central-Trafalgar,DRIVE_COMPANY_VEHICLE,18,EDUCATION,Moutere Hills,-41.26413088,173.0336074,Nelson Central-Trafalgar,-41.27273863,173.28210878,20.79108019342189,Tasman,Nelson
Clyde,Cromwell West,DRIVE_COMPANY_VEHICLE,21,EDUCATION,Clyde,-45.19247012,169.32445482,Cromwell West,-45.06411975,169.17047641,18.697743616204246,Central Otago,Central Otago
Leabank,East Tamaki,DRIVE_COMPANY_VEHICLE,9,EDUCATION,Leabank,-37.03219654,174.88734352,East Tamaki,-36.93823242,174.88712871,10.44835085139207,Franklin,Manukau
West Harbour Luckens Point,Henderson Lincoln East,DRIVE_COMPANY_VEHICLE,9,EDUCATION,West Harbour Luckens Point,-36.81802341,174.63695983,Henderson Lincoln East,-36.85590078,174.63407425,4.219592922898051,Waitakere,Waitakere
Nukuhau-Rangatira Park,Nukuhau-Rangatira Park,DRIVE_COMPANY_VEHICLE,9,EDUCATION,Nukuhau-Rangatira Park,-38.67360248,176.07424697,Nukuhau-Rangatira Park,-38.67360248,176.07424697,0.0,Taupo,Taupo
Pukekohe Hospital,Pukekohe Central,DRIVE_COMPANY_VEHICLE,18,EDUCATION,Pukekohe Hospital,-37.21226696,174.90262406,Pukekohe Central,-37.20891954,174.91332549999996,1.0181697144889534,Franklin,Franklin
Ruakaka,Port-Limeburners,DRIVE_COMPANY_VEHICLE,15,EDUCATION,Ruakaka,-35.87869623,174.45727498,Port-Limeburners,-35.74927345,174.33075178,18.364699437630804,Whangarei,Whangarei
Woodlands,Opotiki,DRIVE_COMPANY_VEHICLE,33,EDUCATION,Woodlands,-38.01656194,177.25965904,Opotiki,-38.0131159,177.28682473,2.4105029064611156,Opotiki,Opotiki
Cambridge West,Cambridge West,DRIVE_COMPANY_VEHICLE,9,EDUCATION,Cambridge West,-37.8870045,175.45779762,Cambridge West,-37.8870045,175.45779762,0.0,Waipa,Waipa
Alexandra South,Earnscleugh,DRIVE_COMPANY_VEHICLE,6,EDUCATION,Alexandra South,-45.25210421,169.37578541,Earnscleugh,-45.2810906,169.25086935,10.293560727625646,Central Otago,Central Otago
Birkdale North,Penrose,DRIVE_COMPANY_VEHICLE,12,EDUCATION,Birkdale North,-36.79368225,174.70092376,Penrose,-36.91999811,174.82258914,17.732889347108774,Waitakere,Waitakere
Waitikiri,Hornby Central,DRIVE_COMPANY_VEHICLE,6,EDUCATION,Waitikiri,-43.46773853,172.6744824,Hornby Central,-43.53921804,172.53566342,13.730558708517153,Christchurch,Christchurch
Hamilton East,Kirikiriroa,DRIVE_COMPANY_VEHICLE,6,EDUCATION,Hamilton East,-37.80128004,175.30076378,Kirikiriroa,-37.7819599,175.27469286,3.1405961033398837,Hamilton,Hamilton
Hillcrest West (Auckland),North Harbour,DRIVE_COMPANY_VEHICLE,18,EDUCATION,Hillcrest West (Auckland),-36.7978865,174.72830919,North Harbour,-36.74630474,174.71502975,5.856317705950954,Waitakere,Waitakere
